{"data": {"stations": [{"name": "Nordica Ave & Medill Ave", "lat": 41.92227, "short_name": "21378", "capacity": 15, "rental_uris": {"ios": "https://chi.lft.to/lastmile_qr_scan", "android": "https://chi.lft.to/lastmile_qr_scan"}, "lon": -87.80202, "station_id": "1955905507044284968"}, {"name": "Menard Ave & Lawrence Ave", "lat": 41.96788, "short_name": "24369", "capacity": 16, "rental_uris": {"ios": "https://chi.lft.to/lastmile_qr_scan", "android": "https://chi.lft.to/lastmile_qr_scan"}, "lon": -87.77274, "station_id": "1969236968943731106"}, {"name": "Nagle Ave & Belmont Ave", "lat": 41.93852, "short_name": "24324", "capacity": 16, "rental_uris": {"ios": "https://chi.lft.to/lastmile_qr_scan", "android": "https://chi.lft.to/lastmile_qr_scan"}, "lon": -87.78735, "station_id": "1981488728284770592"}, {"name": "Broadway & Berwyn Ave", "lat": 41.978361, "short_name": "13109", "capacity": 15, "rental_uris": {"ios": "https://chi.lft.to/lastmile_qr_scan", "android": "https://chi.lft.to/lastmile_qr_scan"}, "lon": -87.659789, "station_id": "a3aa0bb7-a135-11e9-9cda-0a87ae2ba916"}, {"name": "Wentworth Ave & 63rd St", "lat": 41.78007963264, "short_name": "KA1503000025", "capacity": 11, "rental_uris": {"ios": "https://chi.lft.to/lastmile_qr_scan", "android": "https://chi.lft.to/lastmile_qr_scan"}, "lon": -87.6297463052, "station_id": "a3acdae2-a135-11e9-9cda-0a87ae2ba916"}, {"name": "Loomis Blvd & 84th St", "lat": 41.741486528618054, "short_name": "20121", "capacity": 15, "rental_uris": {"ios": "https://chi.lft.to/lastmile_qr_scan", "android": "https://chi.lft.to/lastmile_qr_scan"}, "lon": -87.65841007232666, "station_id": "e63300bd-4ca3-4255-adfd-522289d68b8a"}, {"name": "Sheridan Rd & Loyola Ave", "lat": 42.00104377979, "short_name": "RP-009", "capacity": 23, "rental_uris": {"ios": "https://chi.lft.to/lastmile_qr_scan", "android": "https://chi.lft.to/lastmile_qr_scan"}, "lon": -87.6611982433, "station_id": "a3ae87fa-a135-11e9-9cda-0a87ae2ba916"}, {"name": "Kenton Ave & Madison St", "lat": 41.88042, "short_name": "537", "capacity": 11, "rental_uris": {"ios": "https://chi.lft.to/lastmile_qr_scan", "android": "https://chi.lft.to/lastmile_qr_scan"}, "lon": -87.74108, "station_id": "a3b13836-a135-11e9-9cda-0a87ae2ba916"}, {"name": "Shields Ave & 28th Pl", "lat": 41.842733, "short_name": "15443", "capacity": 11, "rental_uris": {"ios": "https://chi.lft.to/lastmile_qr_scan", "android": "https://chi.lft.to/lastmile_qr_scan"}, "lon": -87.635491, "station_id": "a3ad13e4-a135-11e9-9cda-0a87ae2ba916"}, {"name": "Pulaski Rd & Lake St", "lat": 41.885409, "short_name": "528", "capacity": 11, "rental_uris": {"ios": "https://chi.lft.to/lastmile_qr_scan", "android": "https://chi.lft.to/lastmile_qr_scan"}, "lon": -87.726491, "station_id": "a3b10a40-a135-11e9-9cda-0a87ae2ba916"}, {"name": "Parkside Ave & Armitage Ave", "lat": 41.916907, "short_name": "21354", "capacity": 15, "rental_uris": {"ios": "https://chi.lft.to/lastmile_qr_scan", "android": "https://chi.lft.to/lastmile_qr_scan"}, "lon": -87.767173, "station_id": "1871993715238611622"}, {"name": "McClurg Ct & Erie St", "lat": 41.894503, "short_name": "KA1503000041", "capacity": 31, "rental_uris": {"ios": "https://chi.lft.to/lastmile_qr_scan", "android": "https://chi.lft.to/lastmile_qr_scan"}, "lon": -87.617854, "station_id": "a3a614ad-a135-11e9-9cda-0a87ae2ba916"}, {"name": "Wood St & Chicago Ave", "lat": 41.895634, "short_name": "637", "capacity": 15, "rental_uris": {"ios": "https://chi.lft.to/lastmile_qr_scan", "android": "https://chi.lft.to/lastmile_qr_scan"}, "lon": -87.672069, "station_id": "a3b419d9-a135-11e9-9cda-0a87ae2ba916"}, {"name": "Sheffield Ave & Webster Ave", "lat": 41.92154, "short_name": "TA1309000033", "capacity": 19, "rental_uris": {"ios": "https://chi.lft.to/lastmile_qr_scan", "android": "https://chi.lft.to/lastmile_qr_scan"}, "lon": -87.653818, "station_id": "a3aabad8-a135-11e9-9cda-0a87ae2ba916"}, {"name": "Marine Dr & Ainslie St", "lat": 41.9716, "short_name": "KA1504000171", "capacity": 23, "rental_uris": {"ios": "https://chi.lft.to/lastmile_qr_scan", "android": "https://chi.lft.to/lastmile_qr_scan"}, "lon": -87.650154, "station_id": "a3af52bc-a135-11e9-9cda-0a87ae2ba916"}, {"name": "Glenwood Ave & Touhy Ave", "lat": 42.012701, "short_name": "525", "capacity": 15, "rental_uris": {"ios": "https://chi.lft.to/lastmile_qr_scan", "android": "https://chi.lft.to/lastmile_qr_scan"}, "lon": -87.666058, "station_id": "a3b0fae6-a135-11e9-9cda-0a87ae2ba916"}, {"name": "Western Ave & 43rd St", "lat": 41.81574, "short_name": "24245", "capacity": 15, "rental_uris": {"ios": "https://chi.lft.to/lastmile_qr_scan", "android": "https://chi.lft.to/lastmile_qr_scan"}, "lon": -87.68489, "station_id": "1943244109954931024"}, {"name": "Stony Island Ave & 82nd St", "lat": 41.746559, "short_name": "583", "capacity": 11, "rental_uris": {"ios": "https://chi.lft.to/lastmile_qr_scan", "android": "https://chi.lft.to/lastmile_qr_scan"}, "lon": -87.586005, "station_id": "a3b29fae-a135-11e9-9cda-0a87ae2ba916"}, {"name": "Fairfield Ave & 44th St", "lat": 41.813617, "short_name": "21380", "capacity": 15, "rental_uris": {"ios": "https://chi.lft.to/lastmile_qr_scan", "android": "https://chi.lft.to/lastmile_qr_scan"}, "lon": -87.6932272, "station_id": "1934289944388426278"}, {"name": "Richmond St & Diversey Ave", "lat": 41.93190196886, "short_name": "15645", "capacity": 15, "rental_uris": {"ios": "https://chi.lft.to/lastmile_qr_scan", "android": "https://chi.lft.to/lastmile_qr_scan"}, "lon": -87.7011951301, "station_id": "a3b00b3a-a135-11e9-9cda-0a87ae2ba916"}, {"name": "Keeler Ave & Carmen Ave", "lat": 41.974323, "short_name": "23110", "capacity": 15, "rental_uris": {"ios": "https://chi.lft.to/lastmile_qr_scan", "android": "https://chi.lft.to/lastmile_qr_scan"}, "lon": -87.7331, "station_id": "1882466626513795782"}, {"name": "Hermitage Ave & Polk St", "lat": 41.871514, "short_name": "13080", "capacity": 15, "rental_uris": {"ios": "https://chi.lft.to/lastmile_qr_scan", "android": "https://chi.lft.to/lastmile_qr_scan"}, "lon": -87.669886, "station_id": "a3a965b2-a135-11e9-9cda-0a87ae2ba916"}, {"name": "California Ave & Lake St", "lat": 41.88445395657, "short_name": "15666", "capacity": 11, "rental_uris": {"ios": "https://chi.lft.to/lastmile_qr_scan", "android": "https://chi.lft.to/lastmile_qr_scan"}, "lon": -87.6962981368, "station_id": "a3acb1de-a135-11e9-9cda-0a87ae2ba916"}, {"name": "Woodlawn Ave & Lake Park Ave", "lat": 41.81409271048, "short_name": "KA1503000065", "capacity": 15, "rental_uris": {"ios": "https://chi.lft.to/lastmile_qr_scan", "android": "https://chi.lft.to/lastmile_qr_scan"}, "lon": -87.5970051479, "station_id": "a3ad4d1b-a135-11e9-9cda-0a87ae2ba916"}, {"name": "Mozart St & 55th St", "lat": 41.79375, "short_name": "24267", "capacity": 11, "rental_uris": {"ios": "https://chi.lft.to/lastmile_qr_scan", "android": "https://chi.lft.to/lastmile_qr_scan"}, "lon": -87.69472, "station_id": "1966307477149012058"}, {"name": "Aberdeen St & Randolph St", "lat": 41.884114, "short_name": "18062", "capacity": 15, "rental_uris": {"ios": "https://chi.lft.to/lastmile_qr_scan", "android": "https://chi.lft.to/lastmile_qr_scan"}, "lon": -87.654264, "station_id": "a3b3634c-a135-11e9-9cda-0a87ae2ba916"}, {"name": "Hoyne Ave & Balmoral Ave", "lat": 41.979851, "short_name": "655", "capacity": 15, "rental_uris": {"ios": "https://chi.lft.to/lastmile_qr_scan", "android": "https://chi.lft.to/lastmile_qr_scan"}, "lon": -87.681932, "station_id": "a3b477ac-a135-11e9-9cda-0a87ae2ba916"}, {"name": "Talman Ave & Addison St", "lat": 41.9466358306, "short_name": "15632", "capacity": 15, "rental_uris": {"ios": "https://chi.lft.to/lastmile_qr_scan", "android": "https://chi.lft.to/lastmile_qr_scan"}, "lon": -87.694614758, "station_id": "a3afd7ab-a135-11e9-9cda-0a87ae2ba916"}, {"name": "Exchange Ave & 79th St", "lat": 41.75211500633265, "short_name": "580", "capacity": 11, "rental_uris": {"ios": "https://chi.lft.to/lastmile_qr_scan", "android": "https://chi.lft.to/lastmile_qr_scan"}, "lon": -87.55200700025293, "station_id": "a3b2905a-a135-11e9-9cda-0a87ae2ba916"}, {"name": "Wood St & Augusta Blvd", "lat": 41.899181, "short_name": "657", "capacity": 15, "rental_uris": {"ios": "https://chi.lft.to/lastmile_qr_scan", "android": "https://chi.lft.to/lastmile_qr_scan"}, "lon": -87.6722, "station_id": "a3b481e1-a135-11e9-9cda-0a87ae2ba916"}, {"name": "Damen Ave & 74th St", "lat": 41.759274039331224, "short_name": "16951", "capacity": 11, "rental_uris": {"ios": "https://chi.lft.to/lastmile_qr_scan", "android": "https://chi.lft.to/lastmile_qr_scan"}, "lon": -87.67363429069519, "station_id": "a3b24701-a135-11e9-9cda-0a87ae2ba916"}, {"name": "Mies van der Rohe Way & Chestnut St", "lat": 41.8985866514, "short_name": "15529", "capacity": 19, "rental_uris": {"ios": "https://chi.lft.to/lastmile_qr_scan", "android": "https://chi.lft.to/lastmile_qr_scan"}, "lon": -87.6219152258, "station_id": "a3a62566-a135-11e9-9cda-0a87ae2ba916"}, {"name": "La Villita Park", "lat": 41.83925, "short_name": "21336", "capacity": 15, "rental_uris": {"ios": "https://chi.lft.to/lastmile_qr_scan", "android": "https://chi.lft.to/lastmile_qr_scan"}, "lon": -87.70202, "station_id": "1943245395846580390"}, {"name": "Malcolm X College", "lat": 41.877618, "short_name": "631", "capacity": 19, "rental_uris": {"ios": "https://chi.lft.to/lastmile_qr_scan", "android": "https://chi.lft.to/lastmile_qr_scan"}, "lon": -87.673895, "station_id": "a3b3915a-a135-11e9-9cda-0a87ae2ba916"}, {"name": "Clark St & Touhy Ave", "lat": 42.01256011541, "short_name": "RP-007", "capacity": 15, "rental_uris": {"ios": "https://chi.lft.to/lastmile_qr_scan", "android": "https://chi.lft.to/lastmile_qr_scan"}, "lon": -87.6743671152, "station_id": "a3ac3b03-a135-11e9-9cda-0a87ae2ba916"}, {"name": "Broadway & Thorndale Ave", "lat": 41.98974251144, "short_name": "15575", "capacity": 19, "rental_uris": {"ios": "https://chi.lft.to/lastmile_qr_scan", "android": "https://chi.lft.to/lastmile_qr_scan"}, "lon": -87.6601406209, "station_id": "a3af2c5f-a135-11e9-9cda-0a87ae2ba916"}, {"name": "Sheffield Ave & Wrightwood Ave", "lat": 41.928712, "short_name": "TA1309000023", "capacity": 31, "rental_uris": {"ios": "https://chi.lft.to/lastmile_qr_scan", "android": "https://chi.lft.to/lastmile_qr_scan"}, "lon": -87.653833, "station_id": "a3aa35a4-a135-11e9-9cda-0a87ae2ba916"}, {"name": "Hegewisch Metra Station", "lat": 41.64850076266409, "short_name": "20215", "capacity": 15, "rental_uris": {"ios": "https://chi.lft.to/lastmile_qr_scan", "android": "https://chi.lft.to/lastmile_qr_scan"}, "lon": -87.54608988761902, "station_id": "ff21c158-de98-46c6-9ef7-7082bdb7c634"}, {"name": "Monticello Ave & Irving Park Rd", "lat": 41.95400483876, "short_name": "KA1504000139", "capacity": 15, "rental_uris": {"ios": "https://chi.lft.to/lastmile_qr_scan", "android": "https://chi.lft.to/lastmile_qr_scan"}, "lon": -87.7191281797, "station_id": "a3afb401-a135-11e9-9cda-0a87ae2ba916"}, {"name": "Stony Island Ave & 64th St", "lat": 41.778881, "short_name": "KA1503000021", "capacity": 11, "rental_uris": {"ios": "https://chi.lft.to/lastmile_qr_scan", "android": "https://chi.lft.to/lastmile_qr_scan"}, "lon": -87.586647, "station_id": "a3a528d0-a135-11e9-9cda-0a87ae2ba916"}, {"name": "Cottage Grove Ave & Oakwood Blvd", "lat": 41.822985, "short_name": "TA1308000038", "capacity": 15, "rental_uris": {"ios": "https://chi.lft.to/lastmile_qr_scan", "android": "https://chi.lft.to/lastmile_qr_scan"}, "lon": -87.6071, "station_id": "a3a97a01-a135-11e9-9cda-0a87ae2ba916"}, {"name": "Halsted St & 59th St", "lat": 41.787539, "short_name": "593", "capacity": 11, "rental_uris": {"ios": "https://chi.lft.to/lastmile_qr_scan", "android": "https://chi.lft.to/lastmile_qr_scan"}, "lon": -87.644874, "station_id": "a3b2d2b7-a135-11e9-9cda-0a87ae2ba916"}, {"name": "Damen Ave & 59th St", "lat": 41.785861065132, "short_name": "561", "capacity": 11, "rental_uris": {"ios": "https://chi.lft.to/lastmile_qr_scan", "android": "https://chi.lft.to/lastmile_qr_scan"}, "lon": -87.67414391040802, "station_id": "a3b22d3d-a135-11e9-9cda-0a87ae2ba916"}, {"name": "Loomis St & 95th St", "lat": 41.72148, "short_name": "24358", "capacity": 16, "rental_uris": {"ios": "https://chi.lft.to/lastmile_qr_scan", "android": "https://chi.lft.to/lastmile_qr_scan"}, "lon": -87.65774, "station_id": "2013067286975627866"}, {"name": "Lincoln Ave & Melrose St", "lat": 41.9406, "short_name": "TA1309000042", "capacity": 15, "rental_uris": {"ios": "https://chi.lft.to/lastmile_qr_scan", "android": "https://chi.lft.to/lastmile_qr_scan"}, "lon": -87.669435, "station_id": "a3a5de24-a135-11e9-9cda-0a87ae2ba916"}, {"name": "Clarendon Ave & Junior Ter", "lat": 41.961004, "short_name": "13389", "capacity": 23, "rental_uris": {"ios": "https://chi.lft.to/lastmile_qr_scan", "android": "https://chi.lft.to/lastmile_qr_scan"}, "lon": -87.649603, "station_id": "a3a8855c-a135-11e9-9cda-0a87ae2ba916"}, {"name": "Damen Ave & 51st St", "lat": 41.800908, "short_name": "554", "capacity": 7, "rental_uris": {"ios": "https://chi.lft.to/lastmile_qr_scan", "android": "https://chi.lft.to/lastmile_qr_scan"}, "lon": -87.674684, "station_id": "a3b20960-a135-11e9-9cda-0a87ae2ba916"}, {"name": "Lincoln Ave & Roscoe St*", "lat": 41.9433502470174, "short_name": "chargingstx5", "capacity": 16, "rental_uris": {"ios": "https://chi.lft.to/lastmile_qr_scan", "android": "https://chi.lft.to/lastmile_qr_scan"}, "lon": -87.67066776752472, "station_id": "4843d153-c725-4230-a4c7-402da6a62143"}, {"name": "Blackstone Ave & 59th St", "lat": 41.787877, "short_name": "22004", "capacity": 19, "rental_uris": {"ios": "https://chi.lft.to/lastmile_qr_scan", "android": "https://chi.lft.to/lastmile_qr_scan"}, "lon": -87.590461, "station_id": "1850866657089146912"}, {"name": "Christiana Ave & Lawrence Ave", "lat": 41.96835449363, "short_name": "15615", "capacity": 15, "rental_uris": {"ios": "https://chi.lft.to/lastmile_qr_scan", "android": "https://chi.lft.to/lastmile_qr_scan"}, "lon": -87.7118306675, "station_id": "a3af8123-a135-11e9-9cda-0a87ae2ba916"}, {"name": "State St & 95th St", "lat": 41.7218499, "short_name": "20104", "capacity": 15, "rental_uris": {"ios": "https://chi.lft.to/lastmile_qr_scan", "android": "https://chi.lft.to/lastmile_qr_scan"}, "lon": -87.6228544, "station_id": "792ceba0-564f-4a2c-bcb5-90da781ffeef"}, {"name": "Long Ave & Diversey Ave", "lat": 41.93104, "short_name": "24326", "capacity": 15, "rental_uris": {"ios": "https://chi.lft.to/lastmile_qr_scan", "android": "https://chi.lft.to/lastmile_qr_scan"}, "lon": -87.76124, "station_id": "1961472602929588766"}, {"name": "Kilbourn Ave & Roscoe St", "lat": 41.942722, "short_name": "21360", "capacity": 15, "rental_uris": {"ios": "https://chi.lft.to/lastmile_qr_scan", "android": "https://chi.lft.to/lastmile_qr_scan"}, "lon": -87.739557, "station_id": "1869054242749504212"}, {"name": "Morgan St & 31st St", "lat": 41.8378, "short_name": "TA1308000046", "capacity": 11, "rental_uris": {"ios": "https://chi.lft.to/lastmile_qr_scan", "android": "https://chi.lft.to/lastmile_qr_scan"}, "lon": -87.65114, "station_id": "a3a9c0f6-a135-11e9-9cda-0a87ae2ba916"}, {"name": "Kedzie Ave & Palmer Ct", "lat": 41.921525, "short_name": "13292", "capacity": 15, "rental_uris": {"ios": "https://chi.lft.to/lastmile_qr_scan", "android": "https://chi.lft.to/lastmile_qr_scan"}, "lon": -87.707322, "station_id": "a3a9f76a-a135-11e9-9cda-0a87ae2ba916"}, {"name": "Cottage Grove Ave & 63rd St", "lat": 41.78053094070882, "short_name": "KA1503000054", "capacity": 15, "rental_uris": {"ios": "https://chi.lft.to/lastmile_qr_scan", "android": "https://chi.lft.to/lastmile_qr_scan"}, "lon": -87.6059702038765, "station_id": "a3ad95a7-a135-11e9-9cda-0a87ae2ba916"}, {"name": "Halsted St & Polk St", "lat": 41.87184, "short_name": "TA1307000121", "capacity": 19, "rental_uris": {"ios": "https://chi.lft.to/lastmile_qr_scan", "android": "https://chi.lft.to/lastmile_qr_scan"}, "lon": -87.64664, "station_id": "a3a565b1-a135-11e9-9cda-0a87ae2ba916"}, {"name": "Meade Ave & Fullerton Ave", "lat": 41.924751, "short_name": "24178", "capacity": 15, "rental_uris": {"ios": "https://chi.lft.to/lastmile_qr_scan", "android": "https://chi.lft.to/lastmile_qr_scan"}, "lon": -87.778272, "station_id": "1934288718318207280"}, {"name": "Racine Ave & 35th St", "lat": 41.83068856472101, "short_name": "15446", "capacity": 15, "rental_uris": {"ios": "https://chi.lft.to/lastmile_qr_scan", "android": "https://chi.lft.to/lastmile_qr_scan"}, "lon": -87.65621066093445, "station_id": "a3ac7e9a-a135-11e9-9cda-0a87ae2ba916"}, {"name": "Broadway & Waveland Ave", "lat": 41.949074, "short_name": "13325", "capacity": 15, "rental_uris": {"ios": "https://chi.lft.to/lastmile_qr_scan", "android": "https://chi.lft.to/lastmile_qr_scan"}, "lon": -87.648636, "station_id": "a3aa4017-a135-11e9-9cda-0a87ae2ba916"}, {"name": "Calumet Ave & 71st St", "lat": 41.76550800581, "short_name": "15599", "capacity": 11, "rental_uris": {"ios": "https://chi.lft.to/lastmile_qr_scan", "android": "https://chi.lft.to/lastmile_qr_scan"}, "lon": -87.616917925, "station_id": "a3acea44-a135-11e9-9cda-0a87ae2ba916"}, {"name": "Major Taylor Trail & 124th St", "lat": 41.66869635332246, "short_name": "20208", "capacity": 15, "rental_uris": {"ios": "https://chi.lft.to/lastmile_qr_scan", "android": "https://chi.lft.to/lastmile_qr_scan"}, "lon": -87.63711333274841, "station_id": "732c9f35-0c82-4128-acc3-2cf447298b1d"}, {"name": "Wood St & Webster Ave", "lat": 41.92105672992757, "short_name": "TA1307000138", "capacity": 19, "rental_uris": {"ios": "https://chi.lft.to/lastmile_qr_scan", "android": "https://chi.lft.to/lastmile_qr_scan"}, "lon": -87.67279744148254, "station_id": "a3a83ba1-a135-11e9-9cda-0a87ae2ba916"}, {"name": "Western Ave & Lake St", "lat": 41.88481, "short_name": "24211", "capacity": 15, "rental_uris": {"ios": "https://chi.lft.to/lastmile_qr_scan", "android": "https://chi.lft.to/lastmile_qr_scan"}, "lon": -87.68668, "station_id": "1967727360320698512"}, {"name": "Rush St & Cedar St", "lat": 41.90230870122, "short_name": "KA1504000133", "capacity": 11, "rental_uris": {"ios": "https://chi.lft.to/lastmile_qr_scan", "android": "https://chi.lft.to/lastmile_qr_scan"}, "lon": -87.627690528, "station_id": "a3a72012-a135-11e9-9cda-0a87ae2ba916"}, {"name": "Martin Luther King Dr & 87th St", "lat": 41.73677, "short_name": "24379", "capacity": 15, "rental_uris": {"ios": "https://chi.lft.to/lastmile_qr_scan", "android": "https://chi.lft.to/lastmile_qr_scan"}, "lon": -87.61439, "station_id": "1970688521031469268"}, {"name": "Damen Ave & Madison St", "lat": 41.88137, "short_name": "13134", "capacity": 15, "rental_uris": {"ios": "https://chi.lft.to/lastmile_qr_scan", "android": "https://chi.lft.to/lastmile_qr_scan"}, "lon": -87.67493, "station_id": "a3a7f0ba-a135-11e9-9cda-0a87ae2ba916"}, {"name": "Clark St & Elmdale Ave", "lat": 41.990860448125574, "short_name": "KA1504000148", "capacity": 15, "rental_uris": {"ios": "https://chi.lft.to/lastmile_qr_scan", "android": "https://chi.lft.to/lastmile_qr_scan"}, "lon": -87.66972362995148, "station_id": "a3af2737-a135-11e9-9cda-0a87ae2ba916"}, {"name": "Halsted St & 21st St", "lat": 41.85377981072743, "short_name": "13162", "capacity": 11, "rental_uris": {"ios": "https://chi.lft.to/lastmile_qr_scan", "android": "https://chi.lft.to/lastmile_qr_scan"}, "lon": -87.6466029882431, "station_id": "a3a5f5e6-a135-11e9-9cda-0a87ae2ba916"}, {"name": "Racine Ave & Garfield Blvd", "lat": 41.794228, "short_name": "559", "capacity": 11, "rental_uris": {"ios": "https://chi.lft.to/lastmile_qr_scan", "android": "https://chi.lft.to/lastmile_qr_scan"}, "lon": -87.655073, "station_id": "a3b222fc-a135-11e9-9cda-0a87ae2ba916"}, {"name": "Kilbourn Ave & Milwaukee Ave", "lat": 41.94707089418471, "short_name": "16994", "capacity": 15, "rental_uris": {"ios": "https://chi.lft.to/lastmile_qr_scan", "android": "https://chi.lft.to/lastmile_qr_scan"}, "lon": -87.74000823497772, "station_id": "a3b2c87c-a135-11e9-9cda-0a87ae2ba916"}, {"name": "Cannon Dr & Fullerton Ave", "lat": 41.9267559875, "short_name": "13124", "capacity": 15, "rental_uris": {"ios": "https://chi.lft.to/lastmile_qr_scan", "android": "https://chi.lft.to/lastmile_qr_scan"}, "lon": -87.6344287848, "station_id": "a3a41004-a135-11e9-9cda-0a87ae2ba916"}, {"name": "Bennett Ave & 79th St", "lat": 41.751785, "short_name": "16970", "capacity": 11, "rental_uris": {"ios": "https://chi.lft.to/lastmile_qr_scan", "android": "https://chi.lft.to/lastmile_qr_scan"}, "lon": -87.578496, "station_id": "a3b2862e-a135-11e9-9cda-0a87ae2ba916"}, {"name": "Indiana Ave & 133rd St", "lat": 41.6538, "short_name": "24409", "capacity": 16, "rental_uris": {"ios": "https://chi.lft.to/lastmile_qr_scan", "android": "https://chi.lft.to/lastmile_qr_scan"}, "lon": -87.61719, "station_id": "1978857650118994914"}, {"name": "Karlov Ave & Armitage Ave", "lat": 41.91748, "short_name": "23190", "capacity": 15, "rental_uris": {"ios": "https://chi.lft.to/lastmile_qr_scan", "android": "https://chi.lft.to/lastmile_qr_scan"}, "lon": -87.728952, "station_id": "1867616662773391950"}, {"name": "Green St & Madison St", "lat": 41.881859328038225, "short_name": "TA1307000120", "capacity": 27, "rental_uris": {"ios": "https://chi.lft.to/lastmile_qr_scan", "android": "https://chi.lft.to/lastmile_qr_scan"}, "lon": -87.64926373958588, "station_id": "a3a79adb-a135-11e9-9cda-0a87ae2ba916"}, {"name": "Menard Ave & Milwaukee Ave", "lat": 41.98139, "short_name": "24478", "capacity": 16, "rental_uris": {"ios": "https://chi.lft.to/lastmile_qr_scan", "android": "https://chi.lft.to/lastmile_qr_scan"}, "lon": -87.77331, "station_id": "2020809814916515864"}, {"name": "California Ave & 36th St", "lat": 41.828098, "short_name": "21338", "capacity": 15, "rental_uris": {"ios": "https://chi.lft.to/lastmile_qr_scan", "android": "https://chi.lft.to/lastmile_qr_scan"}, "lon": -87.694684, "station_id": "1934289361049585738"}, {"name": "New St & Illinois St", "lat": 41.890847040623804, "short_name": "TA1306000013", "capacity": 31, "rental_uris": {"ios": "https://chi.lft.to/lastmile_qr_scan", "android": "https://chi.lft.to/lastmile_qr_scan"}, "lon": -87.61861681938171, "station_id": "a3a3e67b-a135-11e9-9cda-0a87ae2ba916"}, {"name": "Leavitt St & Chicago Ave", "lat": 41.895501, "short_name": "18058", "capacity": 19, "rental_uris": {"ios": "https://chi.lft.to/lastmile_qr_scan", "android": "https://chi.lft.to/lastmile_qr_scan"}, "lon": -87.682017, "station_id": "a3b48c07-a135-11e9-9cda-0a87ae2ba916"}, {"name": "Kedzie Ave & 60th St", "lat": 41.78458, "short_name": "24273", "capacity": 15, "rental_uris": {"ios": "https://chi.lft.to/lastmile_qr_scan", "android": "https://chi.lft.to/lastmile_qr_scan"}, "lon": -87.70319, "station_id": "1963671811736140038"}, {"name": "Laramie Ave & Madison St", "lat": 41.880207, "short_name": "540", "capacity": 11, "rental_uris": {"ios": "https://chi.lft.to/lastmile_qr_scan", "android": "https://chi.lft.to/lastmile_qr_scan"}, "lon": -87.755337, "station_id": "a3b148bf-a135-11e9-9cda-0a87ae2ba916"}, {"name": "University Ave & 59th St", "lat": 41.787878, "short_name": "22003", "capacity": 15, "rental_uris": {"ios": "https://chi.lft.to/lastmile_qr_scan", "android": "https://chi.lft.to/lastmile_qr_scan"}, "lon": -87.598906, "station_id": "1850868044363584392"}, {"name": "Francisco Ave & 85th St", "lat": 41.738902, "short_name": "23119", "capacity": 15, "rental_uris": {"ios": "https://chi.lft.to/lastmile_qr_scan", "android": "https://chi.lft.to/lastmile_qr_scan"}, "lon": -87.695518, "station_id": "1879436840905128284"}, {"name": "Kedzie Ave & 54th Pl", "lat": 41.793446, "short_name": "24266", "capacity": 11, "rental_uris": {"ios": "https://chi.lft.to/lastmile_qr_scan", "android": "https://chi.lft.to/lastmile_qr_scan"}, "lon": -87.70345, "station_id": "1963359453732131538"}, {"name": "Wabash Ave & 49th St", "lat": 41.80581, "short_name": "24340", "capacity": 15, "rental_uris": {"ios": "https://chi.lft.to/lastmile_qr_scan", "android": "https://chi.lft.to/lastmile_qr_scan"}, "lon": -87.6245, "station_id": "1963673207600511026"}, {"name": "Kedzie Ave & 24th St", "lat": 41.848193, "short_name": "KA1504000086", "capacity": 11, "rental_uris": {"ios": "https://chi.lft.to/lastmile_qr_scan", "android": "https://chi.lft.to/lastmile_qr_scan"}, "lon": -87.705412, "station_id": "a3addda0-a135-11e9-9cda-0a87ae2ba916"}, {"name": "Wilton Ave & Diversey Pkwy", "lat": 41.932418, "short_name": "TA1306000014", "capacity": 35, "rental_uris": {"ios": "https://chi.lft.to/lastmile_qr_scan", "android": "https://chi.lft.to/lastmile_qr_scan"}, "lon": -87.652705, "station_id": "a3a3a282-a135-11e9-9cda-0a87ae2ba916"}, {"name": "Austin Blvd & Madison St", "lat": 41.880281, "short_name": "16918", "capacity": 11, "rental_uris": {"ios": "https://chi.lft.to/lastmile_qr_scan", "android": "https://chi.lft.to/lastmile_qr_scan"}, "lon": -87.774453, "station_id": "a3b1d532-a135-11e9-9cda-0a87ae2ba916"}, {"name": "Western Ave & Lunt Ave", "lat": 42.0085943972, "short_name": "RP-005", "capacity": 15, "rental_uris": {"ios": "https://chi.lft.to/lastmile_qr_scan", "android": "https://chi.lft.to/lastmile_qr_scan"}, "lon": -87.6904922389, "station_id": "a3af5d1c-a135-11e9-9cda-0a87ae2ba916"}, {"name": "Paulina Ave & North Ave", "lat": 41.90985465216731, "short_name": "TA1305000037", "capacity": 15, "rental_uris": {"ios": "https://chi.lft.to/lastmile_qr_scan", "android": "https://chi.lft.to/lastmile_qr_scan"}, "lon": -87.66993016004562, "station_id": "a3a3b202-a135-11e9-9cda-0a87ae2ba916"}, {"name": "Hoyne Ave & 34th St", "lat": 41.8320245, "short_name": "21337", "capacity": 15, "rental_uris": {"ios": "https://chi.lft.to/lastmile_qr_scan", "android": "https://chi.lft.to/lastmile_qr_scan"}, "lon": -87.6778387, "station_id": "1934289130932983934"}, {"name": "Smith Park", "lat": 41.892048, "short_name": "643", "capacity": 15, "rental_uris": {"ios": "https://chi.lft.to/lastmile_qr_scan", "android": "https://chi.lft.to/lastmile_qr_scan"}, "lon": -87.689397, "station_id": "a3b4399a-a135-11e9-9cda-0a87ae2ba916"}, {"name": "Avers Ave & 16th St", "lat": 41.85909, "short_name": "24225", "capacity": 16, "rental_uris": {"ios": "https://chi.lft.to/lastmile_qr_scan", "android": "https://chi.lft.to/lastmile_qr_scan"}, "lon": -87.72121, "station_id": "1984756450139626426"}, {"name": "Ravenswood Ave & Irving Park Rd", "lat": 41.95469, "short_name": "TA1307000149", "capacity": 19, "rental_uris": {"ios": "https://chi.lft.to/lastmile_qr_scan", "android": "https://chi.lft.to/lastmile_qr_scan"}, "lon": -87.67393, "station_id": "a3a8804b-a135-11e9-9cda-0a87ae2ba916"}, {"name": "Jeffery Blvd & 67th St", "lat": 41.77351755125, "short_name": "KA1503000030", "capacity": 11, "rental_uris": {"ios": "https://chi.lft.to/lastmile_qr_scan", "android": "https://chi.lft.to/lastmile_qr_scan"}, "lon": -87.5771428255, "station_id": "a3ac35ed-a135-11e9-9cda-0a87ae2ba916"}, {"name": "Honore St & Division St", "lat": 41.903119, "short_name": "TA1305000034", "capacity": 23, "rental_uris": {"ios": "https://chi.lft.to/lastmile_qr_scan", "android": "https://chi.lft.to/lastmile_qr_scan"}, "lon": -87.673935, "station_id": "a3a3b731-a135-11e9-9cda-0a87ae2ba916"}, {"name": "Sheridan Rd & Lawrence Ave", "lat": 41.969517, "short_name": "TA1309000041", "capacity": 19, "rental_uris": {"ios": "https://chi.lft.to/lastmile_qr_scan", "android": "https://chi.lft.to/lastmile_qr_scan"}, "lon": -87.654691, "station_id": "a3aaa68b-a135-11e9-9cda-0a87ae2ba916"}, {"name": "Blue Island Ave & 18th St", "lat": 41.857556, "short_name": "13135", "capacity": 15, "rental_uris": {"ios": "https://chi.lft.to/lastmile_qr_scan", "android": "https://chi.lft.to/lastmile_qr_scan"}, "lon": -87.661535, "station_id": "a3a5d3bb-a135-11e9-9cda-0a87ae2ba916"}, {"name": "Milwaukee Ave & Ainslie St", "lat": 41.96861, "short_name": "24370", "capacity": 19, "rental_uris": {"ios": "https://chi.lft.to/lastmile_qr_scan", "android": "https://chi.lft.to/lastmile_qr_scan"}, "lon": -87.76108, "station_id": "1969221526359528022"}, {"name": "Loomis St & Jackson Blvd", "lat": 41.877945, "short_name": "13206", "capacity": 19, "rental_uris": {"ios": "https://chi.lft.to/lastmile_qr_scan", "android": "https://chi.lft.to/lastmile_qr_scan"}, "lon": -87.662007, "station_id": "a3a62aad-a135-11e9-9cda-0a87ae2ba916"}, {"name": "Sedgwick St & Schiller St", "lat": 41.907626, "short_name": "TA1307000143", "capacity": 15, "rental_uris": {"ios": "https://chi.lft.to/lastmile_qr_scan", "android": "https://chi.lft.to/lastmile_qr_scan"}, "lon": -87.638566, "station_id": "a3a854bf-a135-11e9-9cda-0a87ae2ba916"}, {"name": "MLK Jr Dr & 56th St", "lat": 41.79342945658, "short_name": "KA1503000073", "capacity": 11, "rental_uris": {"ios": "https://chi.lft.to/lastmile_qr_scan", "android": "https://chi.lft.to/lastmile_qr_scan"}, "lon": -87.6158532619, "station_id": "a3ad7636-a135-11e9-9cda-0a87ae2ba916"}, {"name": "Cicero Ave & Flournoy St", "lat": 41.872131, "short_name": "16912", "capacity": 11, "rental_uris": {"ios": "https://chi.lft.to/lastmile_qr_scan", "android": "https://chi.lft.to/lastmile_qr_scan"}, "lon": -87.746619, "station_id": "a3b13e66-a135-11e9-9cda-0a87ae2ba916"}, {"name": "Princeton Ave & 95th St", "lat": 41.72175, "short_name": "24360", "capacity": 16, "rental_uris": {"ios": "https://chi.lft.to/lastmile_qr_scan", "android": "https://chi.lft.to/lastmile_qr_scan"}, "lon": -87.63075, "station_id": "1984107787514337392"}, {"name": "Prospect Sq & 91st St", "lat": 41.7282338, "short_name": "20103", "capacity": 15, "rental_uris": {"ios": "https://chi.lft.to/lastmile_qr_scan", "android": "https://chi.lft.to/lastmile_qr_scan"}, "lon": -87.6675239, "station_id": "f0f9f5dc-3d3f-4a32-aa3e-b87566e44de9"}, {"name": "Elston Ave & Cortland St", "lat": 41.91643342912655, "short_name": "TA1305000039", "capacity": 23, "rental_uris": {"ios": "https://chi.lft.to/lastmile_qr_scan", "android": "https://chi.lft.to/lastmile_qr_scan"}, "lon": -87.66674637794495, "station_id": "a3a48d5c-a135-11e9-9cda-0a87ae2ba916"}, {"name": "Montrose Harbor", "lat": 41.963982, "short_name": "TA1308000012", "capacity": 31, "rental_uris": {"ios": "https://chi.lft.to/lastmile_qr_scan", "android": "https://chi.lft.to/lastmile_qr_scan"}, "lon": -87.638181, "station_id": "a3a8999a-a135-11e9-9cda-0a87ae2ba916"}, {"name": "Indiana Ave & 26th St", "lat": 41.845687, "short_name": "TA1307000005", "capacity": 15, "rental_uris": {"ios": "https://chi.lft.to/lastmile_qr_scan", "android": "https://chi.lft.to/lastmile_qr_scan"}, "lon": -87.622481, "station_id": "a3a62fc9-a135-11e9-9cda-0a87ae2ba916"}, {"name": "Buckingham Fountain", "lat": 41.876368, "short_name": "15541.1.1", "capacity": 39, "rental_uris": {"ios": "https://chi.lft.to/lastmile_qr_scan", "android": "https://chi.lft.to/lastmile_qr_scan"}, "lon": -87.6205586, "station_id": "1862806445904101456"}, {"name": "Homan Ave & 26th St", "lat": 41.84425, "short_name": "24230", "capacity": 15, "rental_uris": {"ios": "https://chi.lft.to/lastmile_qr_scan", "android": "https://chi.lft.to/lastmile_qr_scan"}, "lon": -87.70983, "station_id": "1975902497437067330"}, {"name": "State St & 35th St", "lat": 41.8310363140161, "short_name": "TA1307000129", "capacity": 15, "rental_uris": {"ios": "https://chi.lft.to/lastmile_qr_scan", "android": "https://chi.lft.to/lastmile_qr_scan"}, "lon": -87.62679755687714, "station_id": "a3a75d8a-a135-11e9-9cda-0a87ae2ba916"}, {"name": "Laramie Ave & Kinzie St", "lat": 41.887832, "short_name": "530", "capacity": 11, "rental_uris": {"ios": "https://chi.lft.to/lastmile_qr_scan", "android": "https://chi.lft.to/lastmile_qr_scan"}, "lon": -87.755527, "station_id": "a3b11480-a135-11e9-9cda-0a87ae2ba916"}, {"name": "Damen Ave & Thomas St (Augusta Blvd)", "lat": 41.901315, "short_name": "TA1307000070", "capacity": 23, "rental_uris": {"ios": "https://chi.lft.to/lastmile_qr_scan", "android": "https://chi.lft.to/lastmile_qr_scan"}, "lon": -87.677409, "station_id": "a3a75885-a135-11e9-9cda-0a87ae2ba916"}, {"name": "Lavergne Ave & Division St", "lat": 41.9021077, "short_name": "21304", "capacity": 15, "rental_uris": {"ios": "https://chi.lft.to/lastmile_qr_scan", "android": "https://chi.lft.to/lastmile_qr_scan"}, "lon": -87.7508698, "station_id": "1928792940289520096"}, {"name": "Ravenswood Ave & Lawrence Ave", "lat": 41.968445, "short_name": "TA1309000066", "capacity": 47, "rental_uris": {"ios": "https://chi.lft.to/lastmile_qr_scan", "android": "https://chi.lft.to/lastmile_qr_scan"}, "lon": -87.674226, "station_id": "a3ab9119-a135-11e9-9cda-0a87ae2ba916"}, {"name": "Ashland Ave & 63rd St", "lat": 41.779374, "short_name": "16948", "capacity": 11, "rental_uris": {"ios": "https://chi.lft.to/lastmile_qr_scan", "android": "https://chi.lft.to/lastmile_qr_scan"}, "lon": -87.664843, "station_id": "a3b23785-a135-11e9-9cda-0a87ae2ba916"}, {"name": "Milwaukee Ave & Cuyler Ave", "lat": 41.954468, "short_name": "16991", "capacity": 11, "rental_uris": {"ios": "https://chi.lft.to/lastmile_qr_scan", "android": "https://chi.lft.to/lastmile_qr_scan"}, "lon": -87.749594, "station_id": "a3b2be3a-a135-11e9-9cda-0a87ae2ba916"}, {"name": "Greenview Ave & Fullerton Ave", "lat": 41.92533, "short_name": "TA1307000001", "capacity": 15, "rental_uris": {"ios": "https://chi.lft.to/lastmile_qr_scan", "android": "https://chi.lft.to/lastmile_qr_scan"}, "lon": -87.6658, "station_id": "a3a76cb6-a135-11e9-9cda-0a87ae2ba916"}, {"name": "Damen Ave & Cortland St", "lat": 41.915983, "short_name": "13133", "capacity": 19, "rental_uris": {"ios": "https://chi.lft.to/lastmile_qr_scan", "android": "https://chi.lft.to/lastmile_qr_scan"}, "lon": -87.677335, "station_id": "a3a80512-a135-11e9-9cda-0a87ae2ba916"}, {"name": "Ashland Ave & Grand Ave", "lat": 41.891072, "short_name": "13434", "capacity": 15, "rental_uris": {"ios": "https://chi.lft.to/lastmile_qr_scan", "android": "https://chi.lft.to/lastmile_qr_scan"}, "lon": -87.666611, "station_id": "a3a9b1d7-a135-11e9-9cda-0a87ae2ba916"}, {"name": "Dearborn St & Erie St", "lat": 41.893992, "short_name": "13045", "capacity": 27, "rental_uris": {"ios": "https://chi.lft.to/lastmile_qr_scan", "android": "https://chi.lft.to/lastmile_qr_scan"}, "lon": -87.629318, "station_id": "a3a5700b-a135-11e9-9cda-0a87ae2ba916"}, {"name": "Kildare Ave & Archer Ave", "lat": 41.80034, "short_name": "24285", "capacity": 15, "rental_uris": {"ios": "https://chi.lft.to/lastmile_qr_scan", "android": "https://chi.lft.to/lastmile_qr_scan"}, "lon": -87.73079, "station_id": "1963672425916463636"}, {"name": "Panama Ave & Grace St", "lat": 41.94766, "short_name": "21394", "capacity": 11, "rental_uris": {"ios": "https://chi.lft.to/lastmile_qr_scan", "android": "https://chi.lft.to/lastmile_qr_scan"}, "lon": -87.82925, "station_id": "2010820263334840794"}, {"name": "Lynch Ave & Elston Ave", "lat": 41.98096, "short_name": "24477", "capacity": 16, "rental_uris": {"ios": "https://chi.lft.to/lastmile_qr_scan", "android": "https://chi.lft.to/lastmile_qr_scan"}, "lon": -87.76149, "station_id": "2021144286196005052"}, {"name": "Halsted St & North Branch St", "lat": 41.89939028549696, "short_name": "KA1504000117", "capacity": 15, "rental_uris": {"ios": "https://chi.lft.to/lastmile_qr_scan", "android": "https://chi.lft.to/lastmile_qr_scan"}, "lon": -87.64854490756989, "station_id": "a3ac7444-a135-11e9-9cda-0a87ae2ba916"}, {"name": "Michigan Ave & Madison St", "lat": 41.882134, "short_name": "13036", "capacity": 19, "rental_uris": {"ios": "https://chi.lft.to/lastmile_qr_scan", "android": "https://chi.lft.to/lastmile_qr_scan"}, "lon": -87.625125, "station_id": "a3a795d7-a135-11e9-9cda-0a87ae2ba916"}, {"name": "Ashland Ave & Lake St", "lat": 41.88592, "short_name": "13073", "capacity": 19, "rental_uris": {"ios": "https://chi.lft.to/lastmile_qr_scan", "android": "https://chi.lft.to/lastmile_qr_scan"}, "lon": -87.66717, "station_id": "a3a59ec3-a135-11e9-9cda-0a87ae2ba916"}, {"name": "Halsted St & 96th St", "lat": 41.719712183618824, "short_name": "20105", "capacity": 15, "rental_uris": {"ios": "https://chi.lft.to/lastmile_qr_scan", "android": "https://chi.lft.to/lastmile_qr_scan"}, "lon": -87.6430195569992, "station_id": "a21de1a5-f5bc-4b50-8a13-aa28b7dcfa95"}, {"name": "Calumet Ave & 35th St", "lat": 41.831379, "short_name": "13345", "capacity": 15, "rental_uris": {"ios": "https://chi.lft.to/lastmile_qr_scan", "android": "https://chi.lft.to/lastmile_qr_scan"}, "lon": -87.618034, "station_id": "a3aae35a-a135-11e9-9cda-0a87ae2ba916"}, {"name": "MLK Jr Dr & 29th St", "lat": 41.842052, "short_name": "TA1307000139", "capacity": 19, "rental_uris": {"ios": "https://chi.lft.to/lastmile_qr_scan", "android": "https://chi.lft.to/lastmile_qr_scan"}, "lon": -87.617, "station_id": "a3a859c4-a135-11e9-9cda-0a87ae2ba916"}, {"name": "Western Ave & 24th St", "lat": 41.84847, "short_name": "TA1309000003", "capacity": 7, "rental_uris": {"ios": "https://chi.lft.to/lastmile_qr_scan", "android": "https://chi.lft.to/lastmile_qr_scan"}, "lon": -87.685109, "station_id": "a3a9c5f7-a135-11e9-9cda-0a87ae2ba916"}, {"name": "Spaulding Ave & 63rd", "lat": 41.7791655, "short_name": "21349", "capacity": 15, "rental_uris": {"ios": "https://chi.lft.to/lastmile_qr_scan", "android": "https://chi.lft.to/lastmile_qr_scan"}, "lon": -87.7056392, "station_id": "1934290380966283526"}, {"name": "Hoyne Ave & 47th St", "lat": 41.808227, "short_name": "KA1504000091", "capacity": 11, "rental_uris": {"ios": "https://chi.lft.to/lastmile_qr_scan", "android": "https://chi.lft.to/lastmile_qr_scan"}, "lon": -87.67718, "station_id": "a3b1fa1c-a135-11e9-9cda-0a87ae2ba916"}, {"name": "St Louis Ave & 59th St", "lat": 41.78589, "short_name": "21387", "capacity": 15, "rental_uris": {"ios": "https://chi.lft.to/lastmile_qr_scan", "android": "https://chi.lft.to/lastmile_qr_scan"}, "lon": -87.71057, "station_id": "1936552461714393094"}, {"name": "21st St & Pulaski Rd", "lat": 41.85344207588209, "short_name": "21331", "capacity": 15, "rental_uris": {"ios": "https://chi.lft.to/lastmile_qr_scan", "android": "https://chi.lft.to/lastmile_qr_scan"}, "lon": -87.72462849736986, "station_id": "1931696364106218226"}, {"name": "Burling St & Diversey Pkwy", "lat": 41.93314, "short_name": "13208", "capacity": 4, "rental_uris": {"ios": "https://chi.lft.to/lastmile_qr_scan", "android": "https://chi.lft.to/lastmile_qr_scan"}, "lon": -87.64776, "station_id": "2024842594057769234"}, {"name": "Wolcott Ave & Polk St", "lat": 41.871262, "short_name": "TA1309000064", "capacity": 23, "rental_uris": {"ios": "https://chi.lft.to/lastmile_qr_scan", "android": "https://chi.lft.to/lastmile_qr_scan"}, "lon": -87.673688, "station_id": "a3ab86b6-a135-11e9-9cda-0a87ae2ba916"}, {"name": "Green St & Randolph St*", "lat": 41.883601657275165, "short_name": "chargingstx3", "capacity": 12, "rental_uris": {"ios": "https://chi.lft.to/lastmile_qr_scan", "android": "https://chi.lft.to/lastmile_qr_scan"}, "lon": -87.64862671494483, "station_id": "430d5876-c44d-446e-ac53-065da9fb9c17"}, {"name": "Mozart St & 79th St", "lat": 41.749702, "short_name": "23129", "capacity": 15, "rental_uris": {"ios": "https://chi.lft.to/lastmile_qr_scan", "android": "https://chi.lft.to/lastmile_qr_scan"}, "lon": -87.693917, "station_id": "1871992980799203880"}, {"name": "Southport Ave & Irving Park Rd", "lat": 41.954177, "short_name": "TA1309000043", "capacity": 15, "rental_uris": {"ios": "https://chi.lft.to/lastmile_qr_scan", "android": "https://chi.lft.to/lastmile_qr_scan"}, "lon": -87.664358, "station_id": "a3aa8ca0-a135-11e9-9cda-0a87ae2ba916"}, {"name": "Melvina Ave & Giddings Ave", "lat": 41.96648, "short_name": "24368", "capacity": 16, "rental_uris": {"ios": "https://chi.lft.to/lastmile_qr_scan", "android": "https://chi.lft.to/lastmile_qr_scan"}, "lon": -87.78202, "station_id": "2007796988006173238"}, {"name": "Kedzie Ave & 52nd St", "lat": 41.79906, "short_name": "21384", "capacity": 15, "rental_uris": {"ios": "https://chi.lft.to/lastmile_qr_scan", "android": "https://chi.lft.to/lastmile_qr_scan"}, "lon": -87.70342, "station_id": "1936553212713581016"}, {"name": "Avenue O & 134th St", "lat": 41.6519026853208, "short_name": "20214", "capacity": 15, "rental_uris": {"ios": "https://chi.lft.to/lastmile_qr_scan", "android": "https://chi.lft.to/lastmile_qr_scan"}, "lon": -87.53955539376464, "station_id": "759171ce-f355-4740-948d-e14bb8f7dc0e"}, {"name": "Clark St & Berwyn Ave", "lat": 41.978030622486564, "short_name": "KA1504000146", "capacity": 19, "rental_uris": {"ios": "https://chi.lft.to/lastmile_qr_scan", "android": "https://chi.lft.to/lastmile_qr_scan"}, "lon": -87.66856491565704, "station_id": "a3af460f-a135-11e9-9cda-0a87ae2ba916"}, {"name": "Bernard St & Peterson Ave", "lat": 41.9904393, "short_name": "24158", "capacity": 15, "rental_uris": {"ios": "https://chi.lft.to/lastmile_qr_scan", "android": "https://chi.lft.to/lastmile_qr_scan"}, "lon": -87.715236, "station_id": "1929538112769137066"}, {"name": "California Ave & 41st St", "lat": 41.81867, "short_name": "24244", "capacity": 15, "rental_uris": {"ios": "https://chi.lft.to/lastmile_qr_scan", "android": "https://chi.lft.to/lastmile_qr_scan"}, "lon": -87.69441, "station_id": "1943244520961310788"}, {"name": "Lowell Ave & Armitage Ave", "lat": 41.9170767, "short_name": "1524189", "capacity": 15, "rental_uris": {"ios": "https://chi.lft.to/lastmile_qr_scan", "android": "https://chi.lft.to/lastmile_qr_scan"}, "lon": -87.7353543, "station_id": "1929905600854819414"}, {"name": "University Ave & 57th St", "lat": 41.791478, "short_name": "KA1503000071", "capacity": 31, "rental_uris": {"ios": "https://chi.lft.to/lastmile_qr_scan", "android": "https://chi.lft.to/lastmile_qr_scan"}, "lon": -87.599861, "station_id": "a3ad8072-a135-11e9-9cda-0a87ae2ba916"}, {"name": "Oakley Ave & Irving Park Rd", "lat": 41.95434085219, "short_name": "KA1504000158", "capacity": 15, "rental_uris": {"ios": "https://chi.lft.to/lastmile_qr_scan", "android": "https://chi.lft.to/lastmile_qr_scan"}, "lon": -87.6860796243, "station_id": "a3afbe2e-a135-11e9-9cda-0a87ae2ba916"}, {"name": "Meade Ave & Diversey Ave", "lat": 41.93086, "short_name": "21353", "capacity": 15, "rental_uris": {"ios": "https://chi.lft.to/lastmile_qr_scan", "android": "https://chi.lft.to/lastmile_qr_scan"}, "lon": -87.77845, "station_id": "1942117929887056608"}, {"name": "Knox Ave & Marquette Ave", "lat": 41.77114, "short_name": "24146", "capacity": 15, "rental_uris": {"ios": "https://chi.lft.to/lastmile_qr_scan", "android": "https://chi.lft.to/lastmile_qr_scan"}, "lon": -87.73774, "station_id": "1945195957167804800"}, {"name": "Wells St & Institute Pl", "lat": 41.89737986072316, "short_name": "22001", "capacity": 11, "rental_uris": {"ios": "https://chi.lft.to/lastmile_qr_scan", "android": "https://chi.lft.to/lastmile_qr_scan"}, "lon": -87.63442039489746, "station_id": "90011328-f7bd-4b7b-8f95-8204a0b50f27"}, {"name": "Cottage Grove Ave & 51st St", "lat": 41.803038, "short_name": "TA1309000067", "capacity": 15, "rental_uris": {"ios": "https://chi.lft.to/lastmile_qr_scan", "android": "https://chi.lft.to/lastmile_qr_scan"}, "lon": -87.606615, "station_id": "a3ac30c5-a135-11e9-9cda-0a87ae2ba916"}, {"name": "Lockwood Ave & Grand Ave", "lat": 41.9175941, "short_name": "23187", "capacity": 15, "rental_uris": {"ios": "https://chi.lft.to/lastmile_qr_scan", "android": "https://chi.lft.to/lastmile_qr_scan"}, "lon": -87.7584143, "station_id": "1929883678185797908"}, {"name": "Desplaines St & Randolph St", "lat": 41.883703, "short_name": "15535", "capacity": 23, "rental_uris": {"ios": "https://chi.lft.to/lastmile_qr_scan", "android": "https://chi.lft.to/lastmile_qr_scan"}, "lon": -87.644238, "station_id": "a3a52df5-a135-11e9-9cda-0a87ae2ba916"}, {"name": "Racine Ave & 18th St", "lat": 41.8583996, "short_name": "13164", "capacity": 15, "rental_uris": {"ios": "https://chi.lft.to/lastmile_qr_scan", "android": "https://chi.lft.to/lastmile_qr_scan"}, "lon": -87.6564226, "station_id": "a3a3ace6-a135-11e9-9cda-0a87ae2ba916"}, {"name": "Larrabee St & Menomonee St", "lat": 41.91468, "short_name": "TA1306000007", "capacity": 15, "rental_uris": {"ios": "https://chi.lft.to/lastmile_qr_scan", "android": "https://chi.lft.to/lastmile_qr_scan"}, "lon": -87.64332, "station_id": "a3a3f0c6-a135-11e9-9cda-0a87ae2ba916"}, {"name": "Dayton St & North Ave", "lat": 41.9105780349, "short_name": "13058", "capacity": 19, "rental_uris": {"ios": "https://chi.lft.to/lastmile_qr_scan", "android": "https://chi.lft.to/lastmile_qr_scan"}, "lon": -87.6494219288, "station_id": "a3a497b6-a135-11e9-9cda-0a87ae2ba916"}, {"name": "Campbell Ave & Fullerton Ave", "lat": 41.92463247165, "short_name": "15648", "capacity": 15, "rental_uris": {"ios": "https://chi.lft.to/lastmile_qr_scan", "android": "https://chi.lft.to/lastmile_qr_scan"}, "lon": -87.6893070063, "station_id": "a3b01a86-a135-11e9-9cda-0a87ae2ba916"}, {"name": "Pulaski Rd & 60th Pl", "lat": 41.78315, "short_name": "24283", "capacity": 16, "rental_uris": {"ios": "https://chi.lft.to/lastmile_qr_scan", "android": "https://chi.lft.to/lastmile_qr_scan"}, "lon": -87.72257, "station_id": "1992234898774407528"}, {"name": "State St & 111th St", "lat": 41.69251, "short_name": "24417", "capacity": 16, "rental_uris": {"ios": "https://chi.lft.to/lastmile_qr_scan", "android": "https://chi.lft.to/lastmile_qr_scan"}, "lon": -87.62287, "station_id": "1991508150894459550"}, {"name": "Halsted St & 73rd St", "lat": 41.76160543804394, "short_name": "20244", "capacity": 15, "rental_uris": {"ios": "https://chi.lft.to/lastmile_qr_scan", "android": "https://chi.lft.to/lastmile_qr_scan"}, "lon": -87.64416097666071, "station_id": "a60781db-2bec-4a15-a4a2-363297aefcec"}, {"name": "Western Ave & Walton St", "lat": 41.89841768945, "short_name": "KA1504000103", "capacity": 23, "rental_uris": {"ios": "https://chi.lft.to/lastmile_qr_scan", "android": "https://chi.lft.to/lastmile_qr_scan"}, "lon": -87.6865960164, "station_id": "a3ac9d43-a135-11e9-9cda-0a87ae2ba916"}, {"name": "Morgan St & Lake St*", "lat": 41.88549170626906, "short_name": "chargingstx4", "capacity": 20, "rental_uris": {"ios": "https://chi.lft.to/lastmile_qr_scan", "android": "https://chi.lft.to/lastmile_qr_scan"}, "lon": -87.65228927135468, "station_id": "94788869-1849-43f6-99e1-2eacbc3fab03"}, {"name": "Ada St & Washington Blvd", "lat": 41.88283, "short_name": "13353", "capacity": 15, "rental_uris": {"ios": "https://chi.lft.to/lastmile_qr_scan", "android": "https://chi.lft.to/lastmile_qr_scan"}, "lon": -87.661206, "station_id": "a3ac1607-a135-11e9-9cda-0a87ae2ba916"}, {"name": "Drake Ave & Montrose Ave", "lat": 41.96115407569, "short_name": "KA1504000097", "capacity": 15, "rental_uris": {"ios": "https://chi.lft.to/lastmile_qr_scan", "android": "https://chi.lft.to/lastmile_qr_scan"}, "lon": -87.7165690733, "station_id": "a3af9a83-a135-11e9-9cda-0a87ae2ba916"}, {"name": "Troy St & Elston Ave", "lat": 41.94524356848, "short_name": "15631", "capacity": 15, "rental_uris": {"ios": "https://chi.lft.to/lastmile_qr_scan", "android": "https://chi.lft.to/lastmile_qr_scan"}, "lon": -87.7066499009, "station_id": "a3afd294-a135-11e9-9cda-0a87ae2ba916"}, {"name": "Lincoln Ave & Byron St", "lat": 41.952372, "short_name": "23002", "capacity": 15, "rental_uris": {"ios": "https://chi.lft.to/lastmile_qr_scan", "android": "https://chi.lft.to/lastmile_qr_scan"}, "lon": -87.677296, "station_id": "1799277526470631980"}, {"name": "Sheffield Ave & Fullerton Ave", "lat": 41.9256163, "short_name": "TA1306000016", "capacity": 28, "rental_uris": {"ios": "https://chi.lft.to/lastmile_qr_scan", "android": "https://chi.lft.to/lastmile_qr_scan"}, "lon": -87.6536574, "station_id": "a3a4ac3f-a135-11e9-9cda-0a87ae2ba916"}, {"name": "Cicero Ave & Wrightwood Ave", "lat": 41.9279057, "short_name": "23180", "capacity": 15, "rental_uris": {"ios": "https://chi.lft.to/lastmile_qr_scan", "android": "https://chi.lft.to/lastmile_qr_scan"}, "lon": -87.7467295, "station_id": "1890605196211329420"}, {"name": "63rd St Beach", "lat": 41.78091096424803, "short_name": "15491", "capacity": 15, "rental_uris": {"ios": "https://chi.lft.to/lastmile_qr_scan", "android": "https://chi.lft.to/lastmile_qr_scan"}, "lon": -87.57632374763489, "station_id": "a3a547b8-a135-11e9-9cda-0a87ae2ba916"}, {"name": "Lawndale Ave & 30th St", "lat": 41.8389124, "short_name": "21334", "capacity": 15, "rental_uris": {"ios": "https://chi.lft.to/lastmile_qr_scan", "android": "https://chi.lft.to/lastmile_qr_scan"}, "lon": -87.7168955, "station_id": "1933998036428004326"}, {"name": "Kedvale Ave & Peterson Ave", "lat": 41.9900762, "short_name": "24159", "capacity": 15, "rental_uris": {"ios": "https://chi.lft.to/lastmile_qr_scan", "android": "https://chi.lft.to/lastmile_qr_scan"}, "lon": -87.7317073, "station_id": "1929967657204564894"}, {"name": "Damen Ave & Lake St", "lat": 41.8849659, "short_name": "KA17018054", "capacity": 16, "rental_uris": {"ios": "https://chi.lft.to/lastmile_qr_scan", "android": "https://chi.lft.to/lastmile_qr_scan"}, "lon": -87.6768354, "station_id": "a3b47cbc-a135-11e9-9cda-0a87ae2ba916"}, {"name": "Halsted St & 37th St", "lat": 41.827059, "short_name": "TA1307000161", "capacity": 11, "rental_uris": {"ios": "https://chi.lft.to/lastmile_qr_scan", "android": "https://chi.lft.to/lastmile_qr_scan"}, "lon": -87.64572, "station_id": "a3a96aca-a135-11e9-9cda-0a87ae2ba916"}, {"name": "Wood St & 33rd St", "lat": 41.83427, "short_name": "24237", "capacity": 15, "rental_uris": {"ios": "https://chi.lft.to/lastmile_qr_scan", "android": "https://chi.lft.to/lastmile_qr_scan"}, "lon": -87.6706, "station_id": "1958859639339458778"}, {"name": "Racine Ave & 65th St", "lat": 41.775393, "short_name": "564", "capacity": 11, "rental_uris": {"ios": "https://chi.lft.to/lastmile_qr_scan", "android": "https://chi.lft.to/lastmile_qr_scan"}, "lon": -87.654308, "station_id": "a3b23cb8-a135-11e9-9cda-0a87ae2ba916"}, {"name": "Grace St & Cicero Ave", "lat": 41.94973, "short_name": "21322", "capacity": 15, "rental_uris": {"ios": "https://chi.lft.to/lastmile_qr_scan", "android": "https://chi.lft.to/lastmile_qr_scan"}, "lon": -87.74695, "station_id": "1936582560225114270"}, {"name": "Southport Ave & Wellington Ave", "lat": 41.93577461766458, "short_name": "TA1307000006", "capacity": 19, "rental_uris": {"ios": "https://chi.lft.to/lastmile_qr_scan", "android": "https://chi.lft.to/lastmile_qr_scan"}, "lon": -87.66360014677048, "station_id": "a3a6c38e-a135-11e9-9cda-0a87ae2ba916"}, {"name": "Southport Ave & Waveland Ave", "lat": 41.948226, "short_name": "13235", "capacity": 24, "rental_uris": {"ios": "https://chi.lft.to/lastmile_qr_scan", "android": "https://chi.lft.to/lastmile_qr_scan"}, "lon": -87.6640712, "station_id": "a3a82c6c-a135-11e9-9cda-0a87ae2ba916"}, {"name": "Western Blvd & 48th Pl", "lat": 41.805661, "short_name": "594", "capacity": 11, "rental_uris": {"ios": "https://chi.lft.to/lastmile_qr_scan", "android": "https://chi.lft.to/lastmile_qr_scan"}, "lon": -87.683392, "station_id": "a3b2d7d9-a135-11e9-9cda-0a87ae2ba916"}, {"name": "Central Ave & Harrison St", "lat": 41.872993, "short_name": "16915", "capacity": 11, "rental_uris": {"ios": "https://chi.lft.to/lastmile_qr_scan", "android": "https://chi.lft.to/lastmile_qr_scan"}, "lon": -87.764499, "station_id": "a3b1c47b-a135-11e9-9cda-0a87ae2ba916"}, {"name": "Blackstone Ave & Hyde Park Blvd", "lat": 41.802562, "short_name": "13398", "capacity": 19, "rental_uris": {"ios": "https://chi.lft.to/lastmile_qr_scan", "android": "https://chi.lft.to/lastmile_qr_scan"}, "lon": -87.590368, "station_id": "a3a5a9d0-a135-11e9-9cda-0a87ae2ba916"}, {"name": "Hale Ave & 107th St", "lat": 41.699206168127674, "short_name": "20108", "capacity": 11, "rental_uris": {"ios": "https://chi.lft.to/lastmile_qr_scan", "android": "https://chi.lft.to/lastmile_qr_scan"}, "lon": -87.66891896724701, "station_id": "da9e6779-5056-4d45-bae3-9dc325ed2807"}, {"name": "Michigan Ave & 18th St", "lat": 41.857926, "short_name": "13150", "capacity": 23, "rental_uris": {"ios": "https://chi.lft.to/lastmile_qr_scan", "android": "https://chi.lft.to/lastmile_qr_scan"}, "lon": -87.624336, "station_id": "a3a99d47-a135-11e9-9cda-0a87ae2ba916"}, {"name": "Baltimore Ave & 133rd St", "lat": 41.65349, "short_name": "24407", "capacity": 16, "rental_uris": {"ios": "https://chi.lft.to/lastmile_qr_scan", "android": "https://chi.lft.to/lastmile_qr_scan"}, "lon": -87.54703, "station_id": "1975534406854476324"}, {"name": "State St & Pershing Rd", "lat": 41.82301523798, "short_name": "15449", "capacity": 11, "rental_uris": {"ios": "https://chi.lft.to/lastmile_qr_scan", "android": "https://chi.lft.to/lastmile_qr_scan"}, "lon": -87.6265680185, "station_id": "a3ad2d57-a135-11e9-9cda-0a87ae2ba916"}, {"name": "Kostner Ave & 63rd St", "lat": 41.77875, "short_name": "21406", "capacity": 15, "rental_uris": {"ios": "https://chi.lft.to/lastmile_qr_scan", "android": "https://chi.lft.to/lastmile_qr_scan"}, "lon": -87.73246, "station_id": "1938034236347042306"}, {"name": "Leavitt St/North Ave", "lat": 41.910077, "short_name": "PI00003", "capacity": 4, "rental_uris": {"ios": "https://chi.lft.to/lastmile_qr_scan", "android": "https://chi.lft.to/lastmile_qr_scan"}, "lon": -87.682306, "station_id": "1866477298337982542"}, {"name": "Ashland Ave & 50th St", "lat": 41.803023, "short_name": "16940", "capacity": 11, "rental_uris": {"ios": "https://chi.lft.to/lastmile_qr_scan", "android": "https://chi.lft.to/lastmile_qr_scan"}, "lon": -87.664699, "station_id": "a3b20e8a-a135-11e9-9cda-0a87ae2ba916"}, {"name": "Laflin St & Cullerton St", "lat": 41.85491457576575, "short_name": "13307", "capacity": 15, "rental_uris": {"ios": "https://chi.lft.to/lastmile_qr_scan", "android": "https://chi.lft.to/lastmile_qr_scan"}, "lon": -87.66355991363525, "station_id": "a3a7cd56-a135-11e9-9cda-0a87ae2ba916"}, {"name": "Greenview Ave & Diversey Pkwy", "lat": 41.93258963429789, "short_name": "13294", "capacity": 15, "rental_uris": {"ios": "https://chi.lft.to/lastmile_qr_scan", "android": "https://chi.lft.to/lastmile_qr_scan"}, "lon": -87.66593635082245, "station_id": "a3aa91f4-a135-11e9-9cda-0a87ae2ba916"}, {"name": "Torrence Ave & 126th Pl", "lat": 41.66631200825726, "short_name": "20217", "capacity": 15, "rental_uris": {"ios": "https://chi.lft.to/lastmile_qr_scan", "android": "https://chi.lft.to/lastmile_qr_scan"}, "lon": -87.55721569061278, "station_id": "8fd03909-317e-4b6c-b8e9-f4c28b4c90b1"}, {"name": "Kedzie Ave & Roosevelt Rd", "lat": 41.86649278172, "short_name": "15682", "capacity": 11, "rental_uris": {"ios": "https://chi.lft.to/lastmile_qr_scan", "android": "https://chi.lft.to/lastmile_qr_scan"}, "lon": -87.7064961757, "station_id": "a3adbedf-a135-11e9-9cda-0a87ae2ba916"}, {"name": "Noble St & Milwaukee Ave", "lat": 41.9007, "short_name": "13290", "capacity": 15, "rental_uris": {"ios": "https://chi.lft.to/lastmile_qr_scan", "android": "https://chi.lft.to/lastmile_qr_scan"}, "lon": -87.662607, "station_id": "a3a3f5e9-a135-11e9-9cda-0a87ae2ba916"}, {"name": "Dodge Ave & Church St", "lat": 42.048308, "short_name": "600", "capacity": 15, "region_id": "35", "rental_uris": {"ios": "https://chi.lft.to/lastmile_qr_scan", "android": "https://chi.lft.to/lastmile_qr_scan"}, "lon": -87.698224, "station_id": "a3b2f698-a135-11e9-9cda-0a87ae2ba916"}, {"name": "Long Ave & North Ave", "lat": 41.9092147, "short_name": "21375", "capacity": 15, "rental_uris": {"ios": "https://chi.lft.to/lastmile_qr_scan", "android": "https://chi.lft.to/lastmile_qr_scan"}, "lon": -87.7609189, "station_id": "1927677528601722888"}, {"name": "Griffin Museum of Science and Industry", "lat": 41.79172820953, "short_name": "KA1503000074", "capacity": 27, "rental_uris": {"ios": "https://chi.lft.to/lastmile_qr_scan", "android": "https://chi.lft.to/lastmile_qr_scan"}, "lon": -87.583945009, "station_id": "a3ad8587-a135-11e9-9cda-0a87ae2ba916"}, {"name": "Michigan Ave & Lake St", "lat": 41.886022, "short_name": "TA1305000011", "capacity": 35, "rental_uris": {"ios": "https://chi.lft.to/lastmile_qr_scan", "android": "https://chi.lft.to/lastmile_qr_scan"}, "lon": -87.624398, "station_id": "a3a46e71-a135-11e9-9cda-0a87ae2ba916"}, {"name": "Leavitt St & Armitage Ave", "lat": 41.917805, "short_name": "TA1309000029", "capacity": 11, "rental_uris": {"ios": "https://chi.lft.to/lastmile_qr_scan", "android": "https://chi.lft.to/lastmile_qr_scan"}, "lon": -87.682437, "station_id": "a3aa59bb-a135-11e9-9cda-0a87ae2ba916"}, {"name": "Lincoln Ave & Addison St", "lat": 41.946176, "short_name": "TA1309000050", "capacity": 19, "rental_uris": {"ios": "https://chi.lft.to/lastmile_qr_scan", "android": "https://chi.lft.to/lastmile_qr_scan"}, "lon": -87.673308, "station_id": "a3aaca0e-a135-11e9-9cda-0a87ae2ba916"}, {"name": "Clybourn Ave & Division St", "lat": 41.904613, "short_name": "TA1307000115", "capacity": 15, "rental_uris": {"ios": "https://chi.lft.to/lastmile_qr_scan", "android": "https://chi.lft.to/lastmile_qr_scan"}, "lon": -87.640552, "station_id": "a3a6054c-a135-11e9-9cda-0a87ae2ba916"}, {"name": "Narragansett Ave & North Ave", "lat": 41.9095, "short_name": "24308", "capacity": 12, "rental_uris": {"ios": "https://chi.lft.to/lastmile_qr_scan", "android": "https://chi.lft.to/lastmile_qr_scan"}, "lon": -87.78491, "station_id": "2012672652900879218"}, {"name": "Rainbow - Beach", "lat": 41.75787144829, "short_name": "KA1503000049.1", "capacity": 15, "rental_uris": {"ios": "https://chi.lft.to/lastmile_qr_scan", "android": "https://chi.lft.to/lastmile_qr_scan"}, "lon": -87.54938625, "station_id": "1870208802121658482"}, {"name": "Larrabee St & North Ave", "lat": 41.91021, "short_name": "TA1306000008", "capacity": 19, "rental_uris": {"ios": "https://chi.lft.to/lastmile_qr_scan", "android": "https://chi.lft.to/lastmile_qr_scan"}, "lon": -87.6435, "station_id": "a3a3eb9a-a135-11e9-9cda-0a87ae2ba916"}, {"name": "Federal St & Polk St", "lat": 41.87207763285, "short_name": "SL-008", "capacity": 19, "rental_uris": {"ios": "https://chi.lft.to/lastmile_qr_scan", "android": "https://chi.lft.to/lastmile_qr_scan"}, "lon": -87.6295437729, "station_id": "a3a434ce-a135-11e9-9cda-0a87ae2ba916"}, {"name": "Lamon Ave & Armitage Ave", "lat": 41.91676, "short_name": "21357", "capacity": 15, "rental_uris": {"ios": "https://chi.lft.to/lastmile_qr_scan", "android": "https://chi.lft.to/lastmile_qr_scan"}, "lon": -87.749458, "station_id": "1871990322214447924"}, {"name": "Aberdeen St & 103rd St", "lat": 41.70704, "short_name": "24425", "capacity": 16, "rental_uris": {"ios": "https://chi.lft.to/lastmile_qr_scan", "android": "https://chi.lft.to/lastmile_qr_scan"}, "lon": -87.65022, "station_id": "2014856134756363200"}, {"name": "Stony Island Ave & 63rd St", "lat": 41.780506, "short_name": "653B", "capacity": 11, "rental_uris": {"ios": "https://chi.lft.to/lastmile_qr_scan", "android": "https://chi.lft.to/lastmile_qr_scan"}, "lon": -87.586853, "station_id": "1754781885939323186"}, {"name": "Halsted St & Wrightwood Ave", "lat": 41.929143, "short_name": "TA1309000061", "capacity": 15, "rental_uris": {"ios": "https://chi.lft.to/lastmile_qr_scan", "android": "https://chi.lft.to/lastmile_qr_scan"}, "lon": -87.649077, "station_id": "a3ac2671-a135-11e9-9cda-0a87ae2ba916"}, {"name": "Chicago State University", "lat": 41.71896342165455, "short_name": "20106", "capacity": 23, "rental_uris": {"ios": "https://chi.lft.to/lastmile_qr_scan", "android": "https://chi.lft.to/lastmile_qr_scan"}, "lon": -87.60829567909241, "station_id": "9e5ce0b6-198f-48fa-9363-64ab5ec2b222"}, {"name": "Albany Ave & Bloomingdale Ave", "lat": 41.91402671273, "short_name": "15655", "capacity": 15, "rental_uris": {"ios": "https://chi.lft.to/lastmile_qr_scan", "android": "https://chi.lft.to/lastmile_qr_scan"}, "lon": -87.705126462, "station_id": "a3b0bd42-a135-11e9-9cda-0a87ae2ba916"}, {"name": "Wabash Ave & Adams St", "lat": 41.87947235235, "short_name": "KA1503000015", "capacity": 23, "rental_uris": {"ios": "https://chi.lft.to/lastmile_qr_scan", "android": "https://chi.lft.to/lastmile_qr_scan"}, "lon": -87.6256886059, "station_id": "a3a42a93-a135-11e9-9cda-0a87ae2ba916"}, {"name": "Seeley Ave & Garfield Blvd", "lat": 41.794087, "short_name": "557", "capacity": 11, "rental_uris": {"ios": "https://chi.lft.to/lastmile_qr_scan", "android": "https://chi.lft.to/lastmile_qr_scan"}, "lon": -87.675478, "station_id": "a3b218cd-a135-11e9-9cda-0a87ae2ba916"}, {"name": "Torrence Ave & 106th St", "lat": 41.702800850225906, "short_name": "20221", "capacity": 15, "rental_uris": {"ios": "https://chi.lft.to/lastmile_qr_scan", "android": "https://chi.lft.to/lastmile_qr_scan"}, "lon": -87.55972623825073, "station_id": "14d6e4b0-d0cc-4ccb-b757-e596d8c24a99"}, {"name": "Ashland Ave & Garfield Blvd", "lat": 41.792822, "short_name": "16943", "capacity": 11, "rental_uris": {"ios": "https://chi.lft.to/lastmile_qr_scan", "android": "https://chi.lft.to/lastmile_qr_scan"}, "lon": -87.664429, "station_id": "a3b21de7-a135-11e9-9cda-0a87ae2ba916"}, {"name": "Yates Blvd & 93rd St", "lat": 41.726166390245105, "short_name": "20237", "capacity": 15, "rental_uris": {"ios": "https://chi.lft.to/lastmile_qr_scan", "android": "https://chi.lft.to/lastmile_qr_scan"}, "lon": -87.5662761926651, "station_id": "1e7e4cf3-a16b-4cb7-9ead-fdd71e07ea77"}, {"name": "Eggleston Ave & 69th St", "lat": 41.768898, "short_name": "650", "capacity": 11, "rental_uris": {"ios": "https://chi.lft.to/lastmile_qr_scan", "android": "https://chi.lft.to/lastmile_qr_scan"}, "lon": -87.635876, "station_id": "a3b45e26-a135-11e9-9cda-0a87ae2ba916"}, {"name": "Ashland Ave & 66th St", "lat": 41.774074, "short_name": "16950", "capacity": 7, "rental_uris": {"ios": "https://chi.lft.to/lastmile_qr_scan", "android": "https://chi.lft.to/lastmile_qr_scan"}, "lon": -87.663815, "station_id": "a3b241df-a135-11e9-9cda-0a87ae2ba916"}, {"name": "Wells St & Walton St", "lat": 41.89993001, "short_name": "TA1306000011", "capacity": 19, "rental_uris": {"ios": "https://chi.lft.to/lastmile_qr_scan", "android": "https://chi.lft.to/lastmile_qr_scan"}, "lon": -87.63443007, "station_id": "a3a44ec7-a135-11e9-9cda-0a87ae2ba916"}, {"name": "Marmora Ave & Belmont Ave", "lat": 41.9382897, "short_name": "23170", "capacity": 15, "rental_uris": {"ios": "https://chi.lft.to/lastmile_qr_scan", "android": "https://chi.lft.to/lastmile_qr_scan"}, "lon": -87.7737692, "station_id": "1890603435601779460"}, {"name": "Woodlawn Ave & 58th St", "lat": 41.789381, "short_name": "22002", "capacity": 11, "rental_uris": {"ios": "https://chi.lft.to/lastmile_qr_scan", "android": "https://chi.lft.to/lastmile_qr_scan"}, "lon": -87.596479, "station_id": "1850867138125484782"}, {"name": "Morgan St & 18th St", "lat": 41.858086, "short_name": "13163", "capacity": 15, "rental_uris": {"ios": "https://chi.lft.to/lastmile_qr_scan", "android": "https://chi.lft.to/lastmile_qr_scan"}, "lon": -87.651073, "station_id": "a3a3a7b4-a135-11e9-9cda-0a87ae2ba916"}, {"name": "Kosciuszko Park", "lat": 41.93058537138, "short_name": "15643", "capacity": 15, "rental_uris": {"ios": "https://chi.lft.to/lastmile_qr_scan", "android": "https://chi.lft.to/lastmile_qr_scan"}, "lon": -87.7237773635, "station_id": "a3b00055-a135-11e9-9cda-0a87ae2ba916"}, {"name": "California Ave & Cortez St", "lat": 41.900363, "short_name": "17660", "capacity": 15, "rental_uris": {"ios": "https://chi.lft.to/lastmile_qr_scan", "android": "https://chi.lft.to/lastmile_qr_scan"}, "lon": -87.696704, "station_id": "a3b3686c-a135-11e9-9cda-0a87ae2ba916"}, {"name": "Damen Ave & Charleston St", "lat": 41.920082, "short_name": "13288", "capacity": 11, "rental_uris": {"ios": "https://chi.lft.to/lastmile_qr_scan", "android": "https://chi.lft.to/lastmile_qr_scan"}, "lon": -87.677855, "station_id": "a3aa5ed1-a135-11e9-9cda-0a87ae2ba916"}, {"name": "Eastlake Ter & Howard St", "lat": 42.01920250193227, "short_name": "523", "capacity": 15, "rental_uris": {"ios": "https://chi.lft.to/lastmile_qr_scan", "android": "https://chi.lft.to/lastmile_qr_scan"}, "lon": -87.66430288553238, "station_id": "a3b0f0b6-a135-11e9-9cda-0a87ae2ba916"}, {"name": "Kedzie Ave & Lake St", "lat": 41.88460328501, "short_name": "KA1504000106", "capacity": 15, "rental_uris": {"ios": "https://chi.lft.to/lastmile_qr_scan", "android": "https://chi.lft.to/lastmile_qr_scan"}, "lon": -87.7063037436, "station_id": "a3acacbc-a135-11e9-9cda-0a87ae2ba916"}, {"name": "Central Park Ave & 24th St", "lat": 41.8481, "short_name": "15687", "capacity": 11, "rental_uris": {"ios": "https://chi.lft.to/lastmile_qr_scan", "android": "https://chi.lft.to/lastmile_qr_scan"}, "lon": -87.715068, "station_id": "a3add889-a135-11e9-9cda-0a87ae2ba916"}, {"name": "Ravenswood Ave & Berteau Ave", "lat": 41.957921, "short_name": "TA1309000018", "capacity": 15, "rental_uris": {"ios": "https://chi.lft.to/lastmile_qr_scan", "android": "https://chi.lft.to/lastmile_qr_scan"}, "lon": -87.673567, "station_id": "a3aa7373-a135-11e9-9cda-0a87ae2ba916"}, {"name": "McCormick Blvd & Devon Ave", "lat": 41.997136, "short_name": "23101", "capacity": 11, "rental_uris": {"ios": "https://chi.lft.to/lastmile_qr_scan", "android": "https://chi.lft.to/lastmile_qr_scan"}, "lon": -87.711217, "station_id": "1861588043429399408"}, {"name": "Southport Ave & Clybourn Ave", "lat": 41.9215759, "short_name": "TA1309000030", "capacity": 15, "rental_uris": {"ios": "https://chi.lft.to/lastmile_qr_scan", "android": "https://chi.lft.to/lastmile_qr_scan"}, "lon": -87.6664335, "station_id": "a3aa4f80-a135-11e9-9cda-0a87ae2ba916"}, {"name": "Loomis St & 89th St", "lat": 41.73237975329554, "short_name": "20102", "capacity": 15, "rental_uris": {"ios": "https://chi.lft.to/lastmile_qr_scan", "android": "https://chi.lft.to/lastmile_qr_scan"}, "lon": -87.65806943178177, "station_id": "87d2a090-22cd-471b-b622-fef3923999dd"}, {"name": "Keystone Ave & Fullerton Ave", "lat": 41.92459, "short_name": "16010", "capacity": 11, "rental_uris": {"ios": "https://chi.lft.to/lastmile_qr_scan", "android": "https://chi.lft.to/lastmile_qr_scan"}, "lon": -87.72785, "station_id": "a3b35885-a135-11e9-9cda-0a87ae2ba916"}, {"name": "Farragut Ave & Central Ave", "lat": 41.97666, "short_name": "24476", "capacity": 16, "rental_uris": {"ios": "https://chi.lft.to/lastmile_qr_scan", "android": "https://chi.lft.to/lastmile_qr_scan"}, "lon": -87.76823, "station_id": "2020810253003180058"}, {"name": "Central Ave & Lake St", "lat": 41.887664, "short_name": "16905", "capacity": 11, "rental_uris": {"ios": "https://chi.lft.to/lastmile_qr_scan", "android": "https://chi.lft.to/lastmile_qr_scan"}, "lon": -87.765469, "station_id": "a3b11993-a135-11e9-9cda-0a87ae2ba916"}, {"name": "Artesian Ave & Hubbard St", "lat": 41.8895, "short_name": "15664", "capacity": 27, "rental_uris": {"ios": "https://chi.lft.to/lastmile_qr_scan", "android": "https://chi.lft.to/lastmile_qr_scan"}, "lon": -87.688257, "station_id": "a3aca790-a135-11e9-9cda-0a87ae2ba916"}, {"name": "Western Ave & 81st St", "lat": 41.746426, "short_name": "24130", "capacity": 15, "rental_uris": {"ios": "https://chi.lft.to/lastmile_qr_scan", "android": "https://chi.lft.to/lastmile_qr_scan"}, "lon": -87.683123, "station_id": "1934290608103817582"}, {"name": "Normal Ave & Archer Ave", "lat": 41.849527, "short_name": "TA1308000014", "capacity": 11, "rental_uris": {"ios": "https://chi.lft.to/lastmile_qr_scan", "android": "https://chi.lft.to/lastmile_qr_scan"}, "lon": -87.640591, "station_id": "a3a7d279-a135-11e9-9cda-0a87ae2ba916"}, {"name": "State St & 79th St", "lat": 41.750794, "short_name": "573", "capacity": 11, "rental_uris": {"ios": "https://chi.lft.to/lastmile_qr_scan", "android": "https://chi.lft.to/lastmile_qr_scan"}, "lon": -87.624424, "station_id": "a3b26acf-a135-11e9-9cda-0a87ae2ba916"}, {"name": "Archer Ave & Homan Ave", "lat": 41.81153, "short_name": "24246", "capacity": 15, "rental_uris": {"ios": "https://chi.lft.to/lastmile_qr_scan", "android": "https://chi.lft.to/lastmile_qr_scan"}, "lon": -87.70885, "station_id": "1939906971867155378"}, {"name": "Newcastle Ave & Irving Park Rd", "lat": 41.95256, "short_name": "24335", "capacity": 16, "rental_uris": {"ios": "https://chi.lft.to/lastmile_qr_scan", "android": "https://chi.lft.to/lastmile_qr_scan"}, "lon": -87.79755, "station_id": "1981474194261928388"}, {"name": "Ashland Ave & Archer Ave", "lat": 41.83920868403, "short_name": "15442", "capacity": 15, "rental_uris": {"ios": "https://chi.lft.to/lastmile_qr_scan", "android": "https://chi.lft.to/lastmile_qr_scan"}, "lon": -87.6656098589, "station_id": "a3ac83bc-a135-11e9-9cda-0a87ae2ba916"}, {"name": "Peoria St & Jackson Blvd", "lat": 41.8776415962753, "short_name": "13158", "capacity": 19, "rental_uris": {"ios": "https://chi.lft.to/lastmile_qr_scan", "android": "https://chi.lft.to/lastmile_qr_scan"}, "lon": -87.64961779117584, "station_id": "a3a5f0b8-a135-11e9-9cda-0a87ae2ba916"}, {"name": "Rockwell St & 47th St", "lat": 41.80853, "short_name": "24250", "capacity": 15, "rental_uris": {"ios": "https://chi.lft.to/lastmile_qr_scan", "android": "https://chi.lft.to/lastmile_qr_scan"}, "lon": -87.68942, "station_id": "1989626448622643348"}, {"name": "St. Louis & 71st St", "lat": 41.764354, "short_name": "23138", "capacity": 15, "rental_uris": {"ios": "https://chi.lft.to/lastmile_qr_scan", "android": "https://chi.lft.to/lastmile_qr_scan"}, "lon": -87.710121, "station_id": "1861613253877461614"}, {"name": "Damen Ave & 81st St", "lat": 41.746534, "short_name": "23120", "capacity": 15, "rental_uris": {"ios": "https://chi.lft.to/lastmile_qr_scan", "android": "https://chi.lft.to/lastmile_qr_scan"}, "lon": -87.673055, "station_id": "1863873159929715228"}, {"name": "Ogden Ave & Congress Pkwy", "lat": 41.87501, "short_name": "13081", "capacity": 15, "rental_uris": {"ios": "https://chi.lft.to/lastmile_qr_scan", "android": "https://chi.lft.to/lastmile_qr_scan"}, "lon": -87.67328, "station_id": "a3a5af44-a135-11e9-9cda-0a87ae2ba916"}, {"name": "Wacker Dr & Washington St", "lat": 41.88314336439022, "short_name": "KA1503000072", "capacity": 15, "rental_uris": {"ios": "https://chi.lft.to/lastmile_qr_scan", "android": "https://chi.lft.to/lastmile_qr_scan"}, "lon": -87.63724207878113, "station_id": "a3a3bc53-a135-11e9-9cda-0a87ae2ba916"}, {"name": "Vernon Ave & 75th St", "lat": 41.758361, "short_name": "571", "capacity": 11, "rental_uris": {"ios": "https://chi.lft.to/lastmile_qr_scan", "android": "https://chi.lft.to/lastmile_qr_scan"}, "lon": -87.614138, "station_id": "a3b26084-a135-11e9-9cda-0a87ae2ba916"}, {"name": "University Ave & 65th St", "lat": 41.77694, "short_name": "24376", "capacity": 11, "rental_uris": {"ios": "https://chi.lft.to/lastmile_qr_scan", "android": "https://chi.lft.to/lastmile_qr_scan"}, "lon": -87.59842, "station_id": "1965904499533560722"}, {"name": "Kedzie Ave & 48th Pl", "lat": 41.804758123768394, "short_name": "21382", "capacity": 15, "rental_uris": {"ios": "https://chi.lft.to/lastmile_qr_scan", "android": "https://chi.lft.to/lastmile_qr_scan"}, "lon": -87.70421936879356, "station_id": "1934290131858180982"}, {"name": "Green St & Washington Blvd", "lat": 41.88318130597391, "short_name": "13053", "capacity": 11, "rental_uris": {"ios": "https://chi.lft.to/lastmile_qr_scan", "android": "https://chi.lft.to/lastmile_qr_scan"}, "lon": -87.64872461557388, "station_id": "a3a57a52-a135-11e9-9cda-0a87ae2ba916"}, {"name": "Larrabee St & Webster Ave", "lat": 41.921822, "short_name": "13193", "capacity": 19, "rental_uris": {"ios": "https://chi.lft.to/lastmile_qr_scan", "android": "https://chi.lft.to/lastmile_qr_scan"}, "lon": -87.64414, "station_id": "a3a62025-a135-11e9-9cda-0a87ae2ba916"}, {"name": "Lake Park Ave & 35th St", "lat": 41.83127423549, "short_name": "KA1503000004", "capacity": 19, "rental_uris": {"ios": "https://chi.lft.to/lastmile_qr_scan", "android": "https://chi.lft.to/lastmile_qr_scan"}, "lon": -87.6087991946, "station_id": "a3ad2843-a135-11e9-9cda-0a87ae2ba916"}, {"name": "Bosworth Ave & Howard St", "lat": 42.019537, "short_name": "16806", "capacity": 11, "rental_uris": {"ios": "https://chi.lft.to/lastmile_qr_scan", "android": "https://chi.lft.to/lastmile_qr_scan"}, "lon": -87.669563, "station_id": "a3b0eb93-a135-11e9-9cda-0a87ae2ba916"}, {"name": "Morgan St & Pershing Rd", "lat": 41.823613, "short_name": "16933", "capacity": 7, "rental_uris": {"ios": "https://chi.lft.to/lastmile_qr_scan", "android": "https://chi.lft.to/lastmile_qr_scan"}, "lon": -87.650931, "station_id": "a3b1eaa7-a135-11e9-9cda-0a87ae2ba916"}, {"name": "Wabash Ave & Roosevelt Rd", "lat": 41.867227, "short_name": "TA1305000002", "capacity": 23, "rental_uris": {"ios": "https://chi.lft.to/lastmile_qr_scan", "android": "https://chi.lft.to/lastmile_qr_scan"}, "lon": -87.625961, "station_id": "a3a49288-a135-11e9-9cda-0a87ae2ba916"}, {"name": "Western Ave & 79th St", "lat": 41.750843, "short_name": "23131", "capacity": 15, "rental_uris": {"ios": "https://chi.lft.to/lastmile_qr_scan", "android": "https://chi.lft.to/lastmile_qr_scan"}, "lon": -87.682701, "station_id": "1871991855517771832"}, {"name": "Wentworth Ave & Cermak Rd", "lat": 41.85308455741279, "short_name": "13075", "capacity": 19, "rental_uris": {"ios": "https://chi.lft.to/lastmile_qr_scan", "android": "https://chi.lft.to/lastmile_qr_scan"}, "lon": -87.63193130493164, "station_id": "a3a5a48b-a135-11e9-9cda-0a87ae2ba916"}, {"name": "Michigan Ave & 114th St", "lat": 41.68701479467118, "short_name": "20243", "capacity": 15, "rental_uris": {"ios": "https://chi.lft.to/lastmile_qr_scan", "android": "https://chi.lft.to/lastmile_qr_scan"}, "lon": -87.62105226516724, "station_id": "a065d29d-a081-47f4-8d0f-9a572f6085fe"}, {"name": "Western Ave & Winnebago Ave", "lat": 41.91552, "short_name": "13068", "capacity": 15, "rental_uris": {"ios": "https://chi.lft.to/lastmile_qr_scan", "android": "https://chi.lft.to/lastmile_qr_scan"}, "lon": -87.687022, "station_id": "a3a58ee0-a135-11e9-9cda-0a87ae2ba916"}, {"name": "Franklin St & Illinois St", "lat": 41.89102331025185, "short_name": "RN-", "capacity": 11, "rental_uris": {"ios": "https://chi.lft.to/lastmile_qr_scan", "android": "https://chi.lft.to/lastmile_qr_scan"}, "lon": -87.63547986745834, "station_id": "8995498f-1209-4b06-9317-01cd695b3b61"}, {"name": "Altgeld Gardens", "lat": 41.656665529673724, "short_name": "20212", "capacity": 15, "rental_uris": {"ios": "https://chi.lft.to/lastmile_qr_scan", "android": "https://chi.lft.to/lastmile_qr_scan"}, "lon": -87.59880065917969, "station_id": "6fd280b0-74de-4a89-947d-3be40afa079c"}, {"name": "Dorchester Ave & 49th St", "lat": 41.805772, "short_name": "KA1503000069", "capacity": 15, "rental_uris": {"ios": "https://chi.lft.to/lastmile_qr_scan", "android": "https://chi.lft.to/lastmile_qr_scan"}, "lon": -87.592464, "station_id": "a3ad5c90-a135-11e9-9cda-0a87ae2ba916"}, {"name": "Oriole Ave & Irving Park Rd", "lat": 41.95224, "short_name": "24333", "capacity": 12, "rental_uris": {"ios": "https://chi.lft.to/lastmile_qr_scan", "android": "https://chi.lft.to/lastmile_qr_scan"}, "lon": -87.81697, "station_id": "1988925731902098196"}, {"name": "University Library (NU)", "lat": 42.052939, "short_name": "605", "capacity": 15, "region_id": "35", "rental_uris": {"ios": "https://chi.lft.to/lastmile_qr_scan", "android": "https://chi.lft.to/lastmile_qr_scan"}, "lon": -87.673447, "station_id": "a3b310ac-a135-11e9-9cda-0a87ae2ba916"}, {"name": "Damen Ave & 87th St", "lat": 41.736044, "short_name": "23121", "capacity": 15, "rental_uris": {"ios": "https://chi.lft.to/lastmile_qr_scan", "android": "https://chi.lft.to/lastmile_qr_scan"}, "lon": -87.672861, "station_id": "1872721263815561908"}, {"name": "California Ave & Byron St", "lat": 41.95216219326, "short_name": "15628", "capacity": 19, "rental_uris": {"ios": "https://chi.lft.to/lastmile_qr_scan", "android": "https://chi.lft.to/lastmile_qr_scan"}, "lon": -87.698051113, "station_id": "a3afc347-a135-11e9-9cda-0a87ae2ba916"}, {"name": "Dauphin Ave & 87th St", "lat": 41.73648, "short_name": "20116", "capacity": 15, "rental_uris": {"ios": "https://chi.lft.to/lastmile_qr_scan", "android": "https://chi.lft.to/lastmile_qr_scan"}, "lon": -87.601252, "station_id": "625e37ea-24ea-4f13-9a54-6322466ec521"}, {"name": "Cornell Ave & Hyde Park Blvd", "lat": 41.802406, "short_name": "KA1503000007", "capacity": 19, "rental_uris": {"ios": "https://chi.lft.to/lastmile_qr_scan", "android": "https://chi.lft.to/lastmile_qr_scan"}, "lon": -87.586924, "station_id": "a3ad61c2-a135-11e9-9cda-0a87ae2ba916"}, {"name": "South Shore Dr & 67th St", "lat": 41.773643, "short_name": "KA1503000029", "capacity": 15, "rental_uris": {"ios": "https://chi.lft.to/lastmile_qr_scan", "android": "https://chi.lft.to/lastmile_qr_scan"}, "lon": -87.567514, "station_id": "a3ac4548-a135-11e9-9cda-0a87ae2ba916"}, {"name": "Sacramento Ave & 51st St", "lat": 41.80068, "short_name": "24263", "capacity": 16, "rental_uris": {"ios": "https://chi.lft.to/lastmile_qr_scan", "android": "https://chi.lft.to/lastmile_qr_scan"}, "lon": -87.69895, "station_id": "1989627762882635936"}, {"name": "St Louis Ave & Foster Ave", "lat": 41.9759837, "short_name": "23112", "capacity": 15, "rental_uris": {"ios": "https://chi.lft.to/lastmile_qr_scan", "android": "https://chi.lft.to/lastmile_qr_scan"}, "lon": -87.7159844, "station_id": "1926982189560422428"}, {"name": "California Ave & North Ave", "lat": 41.910044, "short_name": "13258", "capacity": 11, "rental_uris": {"ios": "https://chi.lft.to/lastmile_qr_scan", "android": "https://chi.lft.to/lastmile_qr_scan"}, "lon": -87.697167, "station_id": "a3a9acc5-a135-11e9-9cda-0a87ae2ba916"}, {"name": "Halsted St & 47th Pl", "lat": 41.80813391481, "short_name": "KA1503000051", "capacity": 11, "rental_uris": {"ios": "https://chi.lft.to/lastmile_qr_scan", "android": "https://chi.lft.to/lastmile_qr_scan"}, "lon": -87.6456165545, "station_id": "a3ad42c3-a135-11e9-9cda-0a87ae2ba916"}, {"name": "St. Clair St & Erie St", "lat": 41.89434513742426, "short_name": "13016", "capacity": 19, "rental_uris": {"ios": "https://chi.lft.to/lastmile_qr_scan", "android": "https://chi.lft.to/lastmile_qr_scan"}, "lon": -87.62279838323593, "station_id": "a3a7dc8c-a135-11e9-9cda-0a87ae2ba916"}, {"name": "Shore Dr & 55th St", "lat": 41.795212, "short_name": "TA1308000009", "capacity": 19, "rental_uris": {"ios": "https://chi.lft.to/lastmile_qr_scan", "android": "https://chi.lft.to/lastmile_qr_scan"}, "lon": -87.580715, "station_id": "a3a88f84-a135-11e9-9cda-0a87ae2ba916"}, {"name": "Rockwell St & Eastwood Ave", "lat": 41.96590013976, "short_name": "KA1504000093", "capacity": 15, "rental_uris": {"ios": "https://chi.lft.to/lastmile_qr_scan", "android": "https://chi.lft.to/lastmile_qr_scan"}, "lon": -87.6936384935, "station_id": "a3af956e-a135-11e9-9cda-0a87ae2ba916"}, {"name": "Wentworth Ave & 33rd St", "lat": 41.83452988563, "short_name": "15445", "capacity": 15, "rental_uris": {"ios": "https://chi.lft.to/lastmile_qr_scan", "android": "https://chi.lft.to/lastmile_qr_scan"}, "lon": -87.6318229814, "station_id": "a3ad1e12-a135-11e9-9cda-0a87ae2ba916"}, {"name": "Merrimac Park", "lat": 41.95261, "short_name": "21323", "capacity": 15, "rental_uris": {"ios": "https://chi.lft.to/lastmile_qr_scan", "android": "https://chi.lft.to/lastmile_qr_scan"}, "lon": -87.78535, "station_id": "1958860355622110046"}, {"name": "Rush St & Superior St", "lat": 41.89576474564, "short_name": "15530", "capacity": 23, "rental_uris": {"ios": "https://chi.lft.to/lastmile_qr_scan", "android": "https://chi.lft.to/lastmile_qr_scan"}, "lon": -87.6259080327, "station_id": "a3a6e866-a135-11e9-9cda-0a87ae2ba916"}, {"name": "Clark St & Lake St", "lat": 41.88602082773, "short_name": "KA1503000012", "capacity": 35, "rental_uris": {"ios": "https://chi.lft.to/lastmile_qr_scan", "android": "https://chi.lft.to/lastmile_qr_scan"}, "lon": -87.6308760584, "station_id": "a3a42574-a135-11e9-9cda-0a87ae2ba916"}, {"name": "Central Ave & Altgeld St", "lat": 41.9258119, "short_name": "23182", "capacity": 15, "rental_uris": {"ios": "https://chi.lft.to/lastmile_qr_scan", "android": "https://chi.lft.to/lastmile_qr_scan"}, "lon": -87.7663685, "station_id": "1932496568454183892"}, {"name": "Stewart Ave & 123rd St", "lat": 41.6706, "short_name": "24412", "capacity": 16, "rental_uris": {"ios": "https://chi.lft.to/lastmile_qr_scan", "android": "https://chi.lft.to/lastmile_qr_scan"}, "lon": -87.63244, "station_id": "1989976253005812134"}, {"name": "Michigan Ave & Oak St", "lat": 41.90096039, "short_name": "13042", "capacity": 23, "rental_uris": {"ios": "https://chi.lft.to/lastmile_qr_scan", "android": "https://chi.lft.to/lastmile_qr_scan"}, "lon": -87.62377664, "station_id": "a3a4f46b-a135-11e9-9cda-0a87ae2ba916"}, {"name": "Phillips Ave & 83rd St", "lat": 41.744531, "short_name": "582", "capacity": 11, "rental_uris": {"ios": "https://chi.lft.to/lastmile_qr_scan", "android": "https://chi.lft.to/lastmile_qr_scan"}, "lon": -87.56506, "station_id": "a3b29a90-a135-11e9-9cda-0a87ae2ba916"}, {"name": "Kimball Ave & Belmont Ave", "lat": 41.93939395344302, "short_name": "KA150400009X", "capacity": 15, "rental_uris": {"ios": "https://chi.lft.to/lastmile_qr_scan", "android": "https://chi.lft.to/lastmile_qr_scan"}, "lon": -87.71206766366959, "station_id": "a3aff616-a135-11e9-9cda-0a87ae2ba916"}, {"name": "Ashland Ave & McDowell Ave", "lat": 41.809719, "short_name": "16937", "capacity": 11, "rental_uris": {"ios": "https://chi.lft.to/lastmile_qr_scan", "android": "https://chi.lft.to/lastmile_qr_scan"}, "lon": -87.663477, "station_id": "a3b1ff34-a135-11e9-9cda-0a87ae2ba916"}, {"name": "Damen Ave & Division St", "lat": 41.903266, "short_name": "13136", "capacity": 19, "rental_uris": {"ios": "https://chi.lft.to/lastmile_qr_scan", "android": "https://chi.lft.to/lastmile_qr_scan"}, "lon": -87.678435, "station_id": "a3a5d8db-a135-11e9-9cda-0a87ae2ba916"}, {"name": "Southport Ave & Wrightwood Ave", "lat": 41.928773, "short_name": "TA1307000113", "capacity": 16, "rental_uris": {"ios": "https://chi.lft.to/lastmile_qr_scan", "android": "https://chi.lft.to/lastmile_qr_scan"}, "lon": -87.663913, "station_id": "a3a771c2-a135-11e9-9cda-0a87ae2ba916"}, {"name": "Woodlawn Ave & 55th St", "lat": 41.795264, "short_name": "TA1307000164", "capacity": 19, "rental_uris": {"ios": "https://chi.lft.to/lastmile_qr_scan", "android": "https://chi.lft.to/lastmile_qr_scan"}, "lon": -87.596471, "station_id": "a3a89488-a135-11e9-9cda-0a87ae2ba916"}, {"name": "Dearborn St & Monroe St", "lat": 41.881319815, "short_name": "TA1305000006", "capacity": 39, "rental_uris": {"ios": "https://chi.lft.to/lastmile_qr_scan", "android": "https://chi.lft.to/lastmile_qr_scan"}, "lon": -87.6295209193, "station_id": "a3a45e3b-a135-11e9-9cda-0a87ae2ba916"}, {"name": "Lockwood Ave & Wrightwood Ave", "lat": 41.927766, "short_name": "21312", "capacity": 15, "rental_uris": {"ios": "https://chi.lft.to/lastmile_qr_scan", "android": "https://chi.lft.to/lastmile_qr_scan"}, "lon": -87.758544, "station_id": "1872721624592814362"}, {"name": "Central St & Girard Ave", "lat": 42.064313, "short_name": "E007", "capacity": 15, "region_id": "35", "rental_uris": {"ios": "https://chi.lft.to/lastmile_qr_scan", "android": "https://chi.lft.to/lastmile_qr_scan"}, "lon": -87.686152, "station_id": "a3b300d3-a135-11e9-9cda-0a87ae2ba916"}, {"name": "Laramie Ave & Addison St", "lat": 41.9456842, "short_name": "23167", "capacity": 15, "rental_uris": {"ios": "https://chi.lft.to/lastmile_qr_scan", "android": "https://chi.lft.to/lastmile_qr_scan"}, "lon": -87.7569344, "station_id": "1926946441362045298"}, {"name": "Walsh Park", "lat": 41.91461, "short_name": "18067", "capacity": 23, "rental_uris": {"ios": "https://chi.lft.to/lastmile_qr_scan", "android": "https://chi.lft.to/lastmile_qr_scan"}, "lon": -87.667968, "station_id": "a3b38728-a135-11e9-9cda-0a87ae2ba916"}, {"name": "Sheridan Rd & Noyes St (NU)", "lat": 42.058239, "short_name": "604", "capacity": 15, "region_id": "35", "rental_uris": {"ios": "https://chi.lft.to/lastmile_qr_scan", "android": "https://chi.lft.to/lastmile_qr_scan"}, "lon": -87.677432, "station_id": "a3b30b06-a135-11e9-9cda-0a87ae2ba916"}, {"name": "Overhill Ave & Belmont Ave", "lat": 41.93799, "short_name": "24322", "capacity": 16, "rental_uris": {"ios": "https://chi.lft.to/lastmile_qr_scan", "android": "https://chi.lft.to/lastmile_qr_scan"}, "lon": -87.81915, "station_id": "1982154088199745678"}, {"name": "Bernard St & Elston Ave", "lat": 41.949923, "short_name": "18016", "capacity": 11, "rental_uris": {"ios": "https://chi.lft.to/lastmile_qr_scan", "android": "https://chi.lft.to/lastmile_qr_scan"}, "lon": -87.713949, "station_id": "a3b42a3e-a135-11e9-9cda-0a87ae2ba916"}, {"name": "Morgan St & Polk St", "lat": 41.871737, "short_name": "TA1307000130", "capacity": 19, "rental_uris": {"ios": "https://chi.lft.to/lastmile_qr_scan", "android": "https://chi.lft.to/lastmile_qr_scan"}, "lon": -87.65103, "station_id": "a3a8711c-a135-11e9-9cda-0a87ae2ba916"}, {"name": "California Ave & Madison St", "lat": 41.88098, "short_name": "24212", "capacity": 15, "rental_uris": {"ios": "https://chi.lft.to/lastmile_qr_scan", "android": "https://chi.lft.to/lastmile_qr_scan"}, "lon": -87.69598, "station_id": "1958859209051740602"}, {"name": "Sawyer Ave & Irving Park Rd", "lat": 41.95358617895, "short_name": "KA1504000096", "capacity": 15, "rental_uris": {"ios": "https://chi.lft.to/lastmile_qr_scan", "android": "https://chi.lft.to/lastmile_qr_scan"}, "lon": -87.7093107999, "station_id": "a3afb917-a135-11e9-9cda-0a87ae2ba916"}, {"name": "Greenwood Ave & 91st St", "lat": 41.728264268162725, "short_name": "20235", "capacity": 15, "rental_uris": {"ios": "https://chi.lft.to/lastmile_qr_scan", "android": "https://chi.lft.to/lastmile_qr_scan"}, "lon": -87.59729862213135, "station_id": "c4040b17-88bd-40ab-9aae-2655d6771580"}, {"name": "Clark St & Grace St", "lat": 41.95078, "short_name": "TA1307000127", "capacity": 23, "rental_uris": {"ios": "https://chi.lft.to/lastmile_qr_scan", "android": "https://chi.lft.to/lastmile_qr_scan"}, "lon": -87.659172, "station_id": "a3a6fcac-a135-11e9-9cda-0a87ae2ba916"}, {"name": "Sacramento Blvd & Franklin Blvd", "lat": 41.89046879243862, "short_name": "KA1504000113", "capacity": 11, "rental_uris": {"ios": "https://chi.lft.to/lastmile_qr_scan", "android": "https://chi.lft.to/lastmile_qr_scan"}, "lon": -87.70260751247406, "station_id": "a3aca268-a135-11e9-9cda-0a87ae2ba916"}, {"name": "Marshfield Ave & 44th St", "lat": 41.813996, "short_name": "549", "capacity": 11, "rental_uris": {"ios": "https://chi.lft.to/lastmile_qr_scan", "android": "https://chi.lft.to/lastmile_qr_scan"}, "lon": -87.666589, "station_id": "a3b1efd6-a135-11e9-9cda-0a87ae2ba916"}, {"name": "Burnham Harbor", "lat": 41.85741178707404, "short_name": "15545", "capacity": 23, "rental_uris": {"ios": "https://chi.lft.to/lastmile_qr_scan", "android": "https://chi.lft.to/lastmile_qr_scan"}, "lon": -87.61379152536392, "station_id": "a3a378ca-a135-11e9-9cda-0a87ae2ba916"}, {"name": "Burnham Greenway & 105th St", "lat": 41.7045750872071, "short_name": "20222", "capacity": 11, "rental_uris": {"ios": "https://chi.lft.to/lastmile_qr_scan", "android": "https://chi.lft.to/lastmile_qr_scan"}, "lon": -87.52823173999786, "station_id": "c1f104db-9ee7-4999-bd4a-ddd766c75e04"}, {"name": "Ashland Ave & Belle Plaine Ave", "lat": 41.956057, "short_name": "13249", "capacity": 11, "rental_uris": {"ios": "https://chi.lft.to/lastmile_qr_scan", "android": "https://chi.lft.to/lastmile_qr_scan"}, "lon": -87.668835, "station_id": "a3a88a6d-a135-11e9-9cda-0a87ae2ba916"}, {"name": "Dodge Ave & Main St", "lat": 42.03463185161588, "short_name": "E011", "capacity": 15, "region_id": "35", "rental_uris": {"ios": "https://chi.lft.to/lastmile_qr_scan", "android": "https://chi.lft.to/lastmile_qr_scan"}, "lon": -87.69918769598006, "station_id": "a3b377cb-a135-11e9-9cda-0a87ae2ba916"}, {"name": "Carpenter St & 63rd St", "lat": 41.77987, "short_name": "18025", "capacity": 7, "rental_uris": {"ios": "https://chi.lft.to/lastmile_qr_scan", "android": "https://chi.lft.to/lastmile_qr_scan"}, "lon": -87.650919, "station_id": "a3b453f2-a135-11e9-9cda-0a87ae2ba916"}, {"name": "Loomis St & Archer Ave", "lat": 41.84163253965, "short_name": "KA1503000040", "capacity": 11, "rental_uris": {"ios": "https://chi.lft.to/lastmile_qr_scan", "android": "https://chi.lft.to/lastmile_qr_scan"}, "lon": -87.6574349533, "station_id": "a3ac7978-a135-11e9-9cda-0a87ae2ba916"}, {"name": "Grace St & Central Ave", "lat": 41.9495327, "short_name": "23164", "capacity": 15, "rental_uris": {"ios": "https://chi.lft.to/lastmile_qr_scan", "android": "https://chi.lft.to/lastmile_qr_scan"}, "lon": -87.7672648, "station_id": "1929121521556988340"}, {"name": "Central Park Ave & North Ave", "lat": 41.90965687563, "short_name": "15652", "capacity": 15, "rental_uris": {"ios": "https://chi.lft.to/lastmile_qr_scan", "android": "https://chi.lft.to/lastmile_qr_scan"}, "lon": -87.7166319516, "station_id": "a3b02ef1-a135-11e9-9cda-0a87ae2ba916"}, {"name": "Western Ave & 111th St", "lat": 41.691211034981045, "short_name": "20205", "capacity": 23, "rental_uris": {"ios": "https://chi.lft.to/lastmile_qr_scan", "android": "https://chi.lft.to/lastmile_qr_scan"}, "lon": -87.68129736185074, "station_id": "b43a9764-2b1d-4fa0-a13f-7e05eddc7fcd"}, {"name": "Laramie Ave & Irving Park Rd", "lat": 41.9533354, "short_name": "23163", "capacity": 15, "rental_uris": {"ios": "https://chi.lft.to/lastmile_qr_scan", "android": "https://chi.lft.to/lastmile_qr_scan"}, "lon": -87.7583844, "station_id": "1929121088624564460"}, {"name": "Franklin St & Lake St", "lat": 41.885837, "short_name": "TA1307000111", "capacity": 35, "rental_uris": {"ios": "https://chi.lft.to/lastmile_qr_scan", "android": "https://chi.lft.to/lastmile_qr_scan"}, "lon": -87.6355, "station_id": "a3a6f7a5-a135-11e9-9cda-0a87ae2ba916"}, {"name": "Western Ave & Leland Ave", "lat": 41.966399801840986, "short_name": "TA1307000140", "capacity": 19, "rental_uris": {"ios": "https://chi.lft.to/lastmile_qr_scan", "android": "https://chi.lft.to/lastmile_qr_scan"}, "lon": -87.68870428204536, "station_id": "a3a866a5-a135-11e9-9cda-0a87ae2ba916"}, {"name": "Adler Planetarium", "lat": 41.866095, "short_name": "13431", "capacity": 39, "rental_uris": {"ios": "https://chi.lft.to/lastmile_qr_scan", "android": "https://chi.lft.to/lastmile_qr_scan"}, "lon": -87.607267, "station_id": "a3ab812d-a135-11e9-9cda-0a87ae2ba916"}, {"name": "Woodlawn Ave & 75th St", "lat": 41.75916, "short_name": "569", "capacity": 11, "rental_uris": {"ios": "https://chi.lft.to/lastmile_qr_scan", "android": "https://chi.lft.to/lastmile_qr_scan"}, "lon": -87.595751, "station_id": "a3b25656-a135-11e9-9cda-0a87ae2ba916"}, {"name": "Daley Center Plaza", "lat": 41.884241, "short_name": "TA1306000010", "capacity": 39, "rental_uris": {"ios": "https://chi.lft.to/lastmile_qr_scan", "android": "https://chi.lft.to/lastmile_qr_scan"}, "lon": -87.629634, "station_id": "a3a4ea00-a135-11e9-9cda-0a87ae2ba916"}, {"name": "Wallace St & Pershing Rd", "lat": 41.82339, "short_name": "24338", "capacity": 16, "rental_uris": {"ios": "https://chi.lft.to/lastmile_qr_scan", "android": "https://chi.lft.to/lastmile_qr_scan"}, "lon": -87.64118, "station_id": "1990029911253170300"}, {"name": "Racine Ave & Washington Blvd", "lat": 41.883073, "short_name": "654", "capacity": 11, "rental_uris": {"ios": "https://chi.lft.to/lastmile_qr_scan", "android": "https://chi.lft.to/lastmile_qr_scan"}, "lon": -87.656952, "station_id": "a3b4728f-a135-11e9-9cda-0a87ae2ba916"}, {"name": "Clark St & Newport St", "lat": 41.94454, "short_name": "632", "capacity": 15, "rental_uris": {"ios": "https://chi.lft.to/lastmile_qr_scan", "android": "https://chi.lft.to/lastmile_qr_scan"}, "lon": -87.654678, "station_id": "a3b3968b-a135-11e9-9cda-0a87ae2ba916"}, {"name": "Kedzie Ave & Archer Ave", "lat": 41.81447, "short_name": "24243", "capacity": 15, "rental_uris": {"ios": "https://chi.lft.to/lastmile_qr_scan", "android": "https://chi.lft.to/lastmile_qr_scan"}, "lon": -87.70411, "station_id": "1945178760530424534"}, {"name": "Lavergne Ave & Lawrence Ave", "lat": 41.96775, "short_name": "24371", "capacity": 15, "rental_uris": {"ios": "https://chi.lft.to/lastmile_qr_scan", "android": "https://chi.lft.to/lastmile_qr_scan"}, "lon": -87.75259, "station_id": "1969204473221170122"}, {"name": "Ashland Ave & 13th St", "lat": 41.865234, "short_name": "13354", "capacity": 15, "rental_uris": {"ios": "https://chi.lft.to/lastmile_qr_scan", "android": "https://chi.lft.to/lastmile_qr_scan"}, "lon": -87.666507, "station_id": "a3a9a778-a135-11e9-9cda-0a87ae2ba916"}, {"name": "LaSalle Dr & Huron St", "lat": 41.894877, "short_name": "KP1705001026", "capacity": 19, "rental_uris": {"ios": "https://chi.lft.to/lastmile_qr_scan", "android": "https://chi.lft.to/lastmile_qr_scan"}, "lon": -87.632326, "station_id": "a3b3820c-a135-11e9-9cda-0a87ae2ba916"}, {"name": "Sedgwick St & Webster Ave", "lat": 41.922167, "short_name": "13191", "capacity": 15, "rental_uris": {"ios": "https://chi.lft.to/lastmile_qr_scan", "android": "https://chi.lft.to/lastmile_qr_scan"}, "lon": -87.638888, "station_id": "a3a61a0b-a135-11e9-9cda-0a87ae2ba916"}, {"name": "Portage Park", "lat": 41.95607, "short_name": "24363", "capacity": 16, "rental_uris": {"ios": "https://chi.lft.to/lastmile_qr_scan", "android": "https://chi.lft.to/lastmile_qr_scan"}, "lon": -87.76472, "station_id": "2008158642964226604"}, {"name": "Marshfield Ave & 59th St", "lat": 41.786833, "short_name": "560", "capacity": 11, "rental_uris": {"ios": "https://chi.lft.to/lastmile_qr_scan", "android": "https://chi.lft.to/lastmile_qr_scan"}, "lon": -87.666215, "station_id": "a3b22815-a135-11e9-9cda-0a87ae2ba916"}, {"name": "DuSable Museum", "lat": 41.79156801058, "short_name": "KA1503000075", "capacity": 11, "rental_uris": {"ios": "https://chi.lft.to/lastmile_qr_scan", "android": "https://chi.lft.to/lastmile_qr_scan"}, "lon": -87.6078521774, "station_id": "a3ad7b51-a135-11e9-9cda-0a87ae2ba916"}, {"name": "Clark St & North Ave", "lat": 41.911974, "short_name": "13128", "capacity": 15, "rental_uris": {"ios": "https://chi.lft.to/lastmile_qr_scan", "android": "https://chi.lft.to/lastmile_qr_scan"}, "lon": -87.631942, "station_id": "a3a5c440-a135-11e9-9cda-0a87ae2ba916"}, {"name": "Lavergne Ave & Diversey Ave", "lat": 41.93128, "short_name": "24332", "capacity": 15, "rental_uris": {"ios": "https://chi.lft.to/lastmile_qr_scan", "android": "https://chi.lft.to/lastmile_qr_scan"}, "lon": -87.75141, "station_id": "1970390432459950744"}, {"name": "Halsted St & 93rd St", "lat": 41.72489, "short_name": "24356", "capacity": 16, "rental_uris": {"ios": "https://chi.lft.to/lastmile_qr_scan", "android": "https://chi.lft.to/lastmile_qr_scan"}, "lon": -87.64358, "station_id": "2014856357079685426"}, {"name": "South Chicago Ave & 83rd St", "lat": 41.743921, "short_name": "588", "capacity": 11, "rental_uris": {"ios": "https://chi.lft.to/lastmile_qr_scan", "android": "https://chi.lft.to/lastmile_qr_scan"}, "lon": -87.575225, "station_id": "a3b2b92c-a135-11e9-9cda-0a87ae2ba916"}, {"name": "Damen Ave & 77th St", "lat": 41.75420305676257, "short_name": "24132", "capacity": 15, "rental_uris": {"ios": "https://chi.lft.to/lastmile_qr_scan", "android": "https://chi.lft.to/lastmile_qr_scan"}, "lon": -87.67322449999999, "station_id": "1943240055911940522"}, {"name": "Lincoln Ave & Diversey Pkwy", "lat": 41.932225, "short_name": "TA1307000064", "capacity": 15, "rental_uris": {"ios": "https://chi.lft.to/lastmile_qr_scan", "android": "https://chi.lft.to/lastmile_qr_scan"}, "lon": -87.658617, "station_id": "a3a64639-a135-11e9-9cda-0a87ae2ba916"}, {"name": "Rhodes Ave & 71st St", "lat": 41.766, "short_name": "652", "capacity": 11, "rental_uris": {"ios": "https://chi.lft.to/lastmile_qr_scan", "android": "https://chi.lft.to/lastmile_qr_scan"}, "lon": -87.611726, "station_id": "a3b46866-a135-11e9-9cda-0a87ae2ba916"}, {"name": "Major Ave & Addison St", "lat": 41.9458348, "short_name": "23166", "capacity": 11, "rental_uris": {"ios": "https://chi.lft.to/lastmile_qr_scan", "android": "https://chi.lft.to/lastmile_qr_scan"}, "lon": -87.7691848, "station_id": "1929121887488481484"}, {"name": "Central Park Ave & 66th St", "lat": 41.773258, "short_name": "24144", "capacity": 15, "rental_uris": {"ios": "https://chi.lft.to/lastmile_qr_scan", "android": "https://chi.lft.to/lastmile_qr_scan"}, "lon": -87.713143, "station_id": "1934290793283144612"}, {"name": "California Ave & Milwaukee Ave", "lat": 41.922695, "short_name": "13084", "capacity": 15, "rental_uris": {"ios": "https://chi.lft.to/lastmile_qr_scan", "android": "https://chi.lft.to/lastmile_qr_scan"}, "lon": -87.697153, "station_id": "a3a5b496-a135-11e9-9cda-0a87ae2ba916"}, {"name": "Streeter Dr & Grand Ave", "lat": 41.892278, "short_name": "13022", "capacity": 43, "rental_uris": {"ios": "https://chi.lft.to/lastmile_qr_scan", "android": "https://chi.lft.to/lastmile_qr_scan"}, "lon": -87.612043, "station_id": "a3a41526-a135-11e9-9cda-0a87ae2ba916"}, {"name": "Ridge Blvd & Touhy Ave", "lat": 42.01213227742, "short_name": "RP-006", "capacity": 11, "rental_uris": {"ios": "https://chi.lft.to/lastmile_qr_scan", "android": "https://chi.lft.to/lastmile_qr_scan"}, "lon": -87.6829126443, "station_id": "a3af5804-a135-11e9-9cda-0a87ae2ba916"}, {"name": "Halsted St & 111th St", "lat": 41.69226255589166, "short_name": "20127", "capacity": 15, "rental_uris": {"ios": "https://chi.lft.to/lastmile_qr_scan", "android": "https://chi.lft.to/lastmile_qr_scan"}, "lon": -87.64261186122894, "station_id": "a77136ee-060b-433b-88d0-ec74af1ef7ad"}, {"name": "Halsted St & 18th St", "lat": 41.85750568031716, "short_name": "13099", "capacity": 15, "rental_uris": {"ios": "https://chi.lft.to/lastmile_qr_scan", "android": "https://chi.lft.to/lastmile_qr_scan"}, "lon": -87.64599144458771, "station_id": "a3a7af11-a135-11e9-9cda-0a87ae2ba916"}, {"name": "Karlov Ave & Lawrence Ave", "lat": 41.967947, "short_name": "23107", "capacity": 15, "rental_uris": {"ios": "https://chi.lft.to/lastmile_qr_scan", "android": "https://chi.lft.to/lastmile_qr_scan"}, "lon": -87.730409, "station_id": "1867617341378224632"}, {"name": "Michigan Ave & 71st St", "lat": 41.765286, "short_name": "651", "capacity": 7, "rental_uris": {"ios": "https://chi.lft.to/lastmile_qr_scan", "android": "https://chi.lft.to/lastmile_qr_scan"}, "lon": -87.621748, "station_id": "61695579-2f75-4090-a071-c76079b5fb5d"}, {"name": "2112 W Peterson Ave", "lat": 41.991178, "short_name": "KA1504000155", "capacity": 11, "rental_uris": {"ios": "https://chi.lft.to/lastmile_qr_scan", "android": "https://chi.lft.to/lastmile_qr_scan"}, "lon": -87.683593, "station_id": "a3af2216-a135-11e9-9cda-0a87ae2ba916"}, {"name": "Wood St & 84th St", "lat": 41.741192, "short_name": "23124", "capacity": 15, "rental_uris": {"ios": "https://chi.lft.to/lastmile_qr_scan", "android": "https://chi.lft.to/lastmile_qr_scan"}, "lon": -87.668106, "station_id": "1863873701095594368"}, {"name": "Harlem Ave & Grace St", "lat": 41.94894, "short_name": "21325", "capacity": 15, "rental_uris": {"ios": "https://chi.lft.to/lastmile_qr_scan", "android": "https://chi.lft.to/lastmile_qr_scan"}, "lon": -87.80683, "station_id": "1962566135789175644"}, {"name": "Wells St & Randolph St", "lat": 41.884295, "short_name": "TA1305000030", "capacity": 27, "rental_uris": {"ios": "https://chi.lft.to/lastmile_qr_scan", "android": "https://chi.lft.to/lastmile_qr_scan"}, "lon": -87.633963, "station_id": "a3a46896-a135-11e9-9cda-0a87ae2ba916"}, {"name": "Eckhart Park", "lat": 41.89637337, "short_name": "13289", "capacity": 19, "rental_uris": {"ios": "https://chi.lft.to/lastmile_qr_scan", "android": "https://chi.lft.to/lastmile_qr_scan"}, "lon": -87.66098386, "station_id": "a3a4f993-a135-11e9-9cda-0a87ae2ba916"}, {"name": "Long Ave & Belmont Ave", "lat": 41.93833, "short_name": "21317", "capacity": 15, "rental_uris": {"ios": "https://chi.lft.to/lastmile_qr_scan", "android": "https://chi.lft.to/lastmile_qr_scan"}, "lon": -87.76166, "station_id": "1936582264492460636"},